% program   : RTKPOST ver.2.4.3 b34
% inp file  : C:\Users\BMI24\dlr\Kampagnen\Demmin1\nav\ublox_complete.obs
% inp file  : C:\Users\BMI24\dlr\Kampagnen\Demmin1\nav\sapos\0789Altentreptow\0789277i.21o
% inp file  : C:\Users\BMI24\dlr\Kampagnen\Demmin1\nav\sapos\0789Altentreptow\0789277i.21*
% obs start : 2021/10/04 09:29:03.0 GPST (week2178 120543.0s)
% obs end   : 2021/10/04 14:58:01.0 GPST (week2178 140281.0s)
% pos mode  : Kinematic
% freqs     : L1+2
% solution  : Forward
% elev mask : 10.0 deg
% dynamics  : off
% tidecorr  : off
% ionos opt : Broadcast
% tropo opt : Saastamoinen
% ephemeris : Broadcast
% navi sys  : GPS GLONASS
% amb res   : Continuous
% amb glo   : OFF
% val thres : 3.0
% antenna1  :                       ( 0.0000  0.0000  0.0000)
% antenna2  :                       ( 0.0000  0.0000  0.0000)
% ref pos   : 53.697662987   13.246374477    81.4752
%
% (lat/lon/height=WGS84/ellipsoidal,Q=1:fix,2:float,3:sbas,4:dgps,5:single,6:ppp,ns=# of satellites)
%  GPST                  latitude(deg) longitude(deg)  height(m)   Q  ns   sdn(m)   sde(m)   sdu(m)  sdne(m)  sdeu(m)  sdun(m) age(s)  ratio
2021/10/04 09:29:03.008   53.830373122   13.233400785    74.8905   2   7   0.8950   0.7572   1.4326   0.3382   0.5186   0.7004   0.00    1.5
2021/10/04 09:29:04.008   53.830373212   13.233405075    74.5789   2   7   0.6406   0.5393   1.0221   0.2446   0.3729   0.5035   0.00    2.4
2021/10/04 09:29:05.008   53.830373494   13.233406395    74.4279   2   7   0.5251   0.4416   0.8372   0.2012   0.3061   0.4134   0.00    1.4
2021/10/04 09:29:06.008   53.830374308   13.233407336    74.4211   2   7   0.4557   0.3830   0.7262   0.1749   0.2657   0.3590   0.00    1.1
2021/10/04 09:29:07.008   53.830374704   13.233407623    74.4244   2   7   0.4080   0.3429   0.6502   0.1567   0.2380   0.3216   0.00    1.0
2021/10/04 09:29:08.008   53.830373809   13.233406266    74.4274   2   5   0.3829   0.3280   0.5962   0.1595   0.2057   0.2896   0.00    1.2
2021/10/04 09:29:09.008   53.830373491   13.233406636    74.3663   2   5   0.3621   0.3147   0.5544   0.1596   0.1802   0.2647   0.00    1.7
2021/10/04 09:29:10.008   53.830371825   13.233405199    74.0278   2   5   0.3448   0.3032   0.5199   0.1592   0.1607   0.2446   0.00    1.5
2021/10/04 09:29:11.008   53.830371640   13.233404815    73.9670   2   5   0.3301   0.2933   0.4914   0.1584   0.1443   0.2280   0.00    1.1
2021/10/04 09:29:12.008   53.830372056   13.233409226    73.9608   2   5   0.3173   0.2845   0.4673   0.1573   0.1304   0.2139   0.00    1.3
2021/10/04 09:29:13.008   53.830367171   13.233389417    75.8478   2   5   0.4284   0.9049   1.2343   0.5316  -0.9887  -0.5516   0.00    2.3
2021/10/04 09:29:14.008   53.830376247   13.233415639    73.7943   2   5   0.8191   0.6623   1.1150   0.4046  -0.6834  -0.7910   0.00    1.3
2021/10/04 09:29:15.008   53.830379644   13.233414918    73.6705   2   5   1.1974   1.2321   1.5140   0.8628  -0.4929   0.4103   0.00   11.4
2021/10/04 09:29:58.000   53.830384854   13.233415174    75.7651   2   6   2.4098   1.4264   2.7403   1.7528   1.6316   2.3606   0.00    1.4
2021/10/04 09:29:59.000   53.830422054   13.233443342    78.5229   2  10   1.1057   0.8124   1.3058   0.8655   0.6992   0.9702   0.00    1.0
2021/10/04 09:30:00.000   53.830417603   13.233438347    77.7490   2  10   0.8427   0.6479   1.0075   0.6709   0.5274   0.7174   0.00    1.0
2021/10/04 09:30:01.000   53.830410871   13.233433712    77.1940   2  10   0.7073   0.5555   0.8509   0.5677   0.4413   0.5934   0.00    1.4
2021/10/04 09:30:02.000   53.830406754   13.233428428    77.2766   2  10   0.6418   0.4992   0.7673   0.5122   0.3993   0.5365   0.00    2.3
2021/10/04 09:30:03.000   53.830394319   13.233416362    76.7340   2  10   1.1261   0.7464   1.3507   0.8873   0.9035   1.1626   0.00    2.9
2021/10/04 09:30:04.000   53.830396080   13.233415810    76.9303   1  10   0.7870   0.4768   0.9387   0.6125   0.6687   0.8594   0.00    3.1
2021/10/04 09:30:05.000   53.830388574   13.233408439    76.4897   2  11   0.6553   0.4735   0.7838   0.5221   0.4803   0.6224   0.00    2.2
2021/10/04 09:30:06.000   53.830384144   13.233404727    76.1376   1  11   0.5227   0.3168   0.6241   0.4068   0.4443   0.5709   0.00    9.4
2021/10/04 09:30:07.000   53.830380883   13.233402630    76.2139   2  11   0.5075   0.3828   0.6036   0.4061   0.3465   0.4535   0.00    1.4
2021/10/04 09:30:08.000   53.830379150   13.233401099    76.2462   2  11   0.4646   0.3552   0.5517   0.3724   0.3090   0.4060   0.00    2.5
2021/10/04 09:30:09.000   53.830378951   13.233397135    76.1062   2  11   0.4315   0.3335   0.5117   0.3463   0.2807   0.3702   0.00    2.7
2021/10/04 09:30:10.000   53.830377951   13.233396706    76.1011   2  11   0.4048   0.3156   0.4795   0.3252   0.2584   0.3418   0.00    2.8
2021/10/04 09:30:11.000   53.830377114   13.233396228    76.1590   2  11   0.3826   0.3005   0.4528   0.3076   0.2402   0.3185   0.00    2.9
2021/10/04 09:30:12.000   53.830376272   13.233395911    76.1626   2  11   0.3636   0.2874   0.4301   0.2925   0.2249   0.2991   0.00    2.7
2021/10/04 09:30:13.000   53.830375426   13.233394779    76.1662   2  11   0.3472   0.2759   0.4106   0.2795   0.2120   0.2826   0.00    2.6
2021/10/04 09:30:14.000   53.830373971   13.233394173    76.1365   2  11   0.3328   0.2657   0.3935   0.2680   0.2007   0.2682   0.00    2.2
2021/10/04 09:30:15.000   53.830373509   13.233394116    76.1754   2  11   0.3199   0.2566   0.3783   0.2578   0.1908   0.2556   0.00    1.8
2021/10/04 09:30:16.000   53.830372744   13.233393529    76.1585   2  11   0.3084   0.2482   0.3647   0.2486   0.1821   0.2443   0.00    1.6
2021/10/04 09:30:17.000   53.830372016   13.233392730    76.0859   2  11   0.2979   0.2406   0.3525   0.2402   0.1742   0.2343   0.00    1.5
2021/10/04 09:30:18.000   53.830371487   13.233391728    75.5320   2  11   0.2883   0.2337   0.3413   0.2325   0.1671   0.2252   0.00    1.4
2021/10/04 09:30:19.000   53.830370908   13.233391630    75.4764   2  11   0.2799   0.2276   0.3311   0.2259   0.1609   0.2170   0.00    1.1
2021/10/04 09:30:20.000   53.830373407   13.233394675    74.4754   1  11   0.0116   0.0082   0.0131   0.0083   0.0065   0.0088   0.00    3.5
2021/10/04 09:30:21.000   53.830373200   13.233392754    74.5997   1  11   0.0117   0.0090   0.0141   0.0088   0.0049   0.0082   0.00    3.6
2021/10/04 09:30:22.000   53.830373210   13.233392027    75.0896   1  11   0.0108   0.0076   0.0128   0.0078   0.0061   0.0080   0.00    4.2
2021/10/04 09:30:23.000   53.830373210   13.233392501    75.1814   1  11   0.0105   0.0077   0.0127   0.0073   0.0057   0.0077   0.00    5.3
2021/10/04 09:30:24.000   53.830373128   13.233392430    75.1848   1  11   0.0104   0.0074   0.0126   0.0072   0.0056   0.0076   0.00    5.7
2021/10/04 09:30:25.000   53.830372930   13.233392356    75.1528   1  11   0.0102   0.0074   0.0125   0.0072   0.0055   0.0075   0.00    6.6
2021/10/04 09:30:26.000   53.830372975   13.233392382    75.1537   1  11   0.0101   0.0074   0.0125   0.0072   0.0055   0.0074   0.00    6.9
2021/10/04 09:30:27.000   53.830373017   13.233392365    75.1493   1  11   0.0101   0.0074   0.0125   0.0071   0.0054   0.0073   0.00    7.1
2021/10/04 09:30:28.000   53.830372929   13.233392496    75.1335   1  13   0.0101   0.0075   0.0124   0.0070   0.0052   0.0073   0.00    7.0
2021/10/04 09:30:29.000   53.830372844   13.233394465    74.7228   1  13   0.0094   0.0070   0.0123   0.0064   0.0051   0.0071   0.00    6.5
2021/10/04 09:30:30.000   53.830355435   13.233380703    75.9771   2  11   0.1923   0.1541   0.2441   0.1472   0.1037   0.1448   0.00    1.0
2021/10/04 09:30:31.000   53.830376484   13.233372249    72.7748   2  11   0.2195   0.6564   1.2222   0.3029   0.4863   0.2268   0.00    1.0
2021/10/04 09:30:32.000   53.830383479   13.233385713    71.5714   2  12   0.2104   0.6000   1.2474   0.2792   0.4285   0.1877   0.00    1.3
2021/10/04 09:30:33.000   53.830371960   13.233389567    74.9563   2  12   0.2031   0.5856   1.1404   0.2676   0.3432   0.1045   0.00    1.9
2021/10/04 09:30:34.000   53.830363170   13.233380462    74.6276   2   9   0.9361   0.4558   0.9895   0.3538   0.2387  -0.6525   0.00    1.1
2021/10/04 09:30:35.000   53.830370977   13.233403593    74.1374   2  13   0.6700   0.7114   1.1462   0.4159  -0.2750  -0.2260   0.00    0.0
2021/10/04 09:30:36.000   53.830372508   13.233403595    74.4844   2  14   0.4825   0.5141   1.0702   0.3105  -0.3360  -0.3233   0.00    0.0
2021/10/04 09:30:37.000   53.830371039   13.233404754    72.9866   2  13   0.6168   0.4332   1.1258   0.2562  -0.3791  -0.1334   0.00    2.2
2021/10/04 09:30:38.000   53.830381266   13.233444978    71.9108   2  11   0.5892   0.7123   1.0541   0.5201   0.5818   0.4656   0.00  747.4
2021/10/04 09:30:39.000   53.830402204   13.233418814    75.6974   2  10   0.8518   0.8422   1.5225   0.5949   0.5680   0.7753   0.00    0.0
2021/10/04 09:30:40.000   53.830372637   13.233430605    70.7641   1  10   0.4105   0.3483   0.4141  -0.3778   0.3795  -0.4121   0.00    5.9
2021/10/04 09:30:41.000   53.830362010   13.233425427    69.0351   2  14   0.6790   0.6125   0.9948   0.4553   0.3072   0.3976   0.00    1.1
2021/10/04 09:30:42.000   53.830373026   13.233418978    71.8734   2  15   0.6557   0.6671   1.0966   0.4242  -0.2711   0.3286   0.00    0.0
2021/10/04 09:30:43.000   53.830377564   13.233389798    73.5680   2  14   0.6500   0.6206   1.0709   0.3876   0.3005   0.4121   0.00    1.3
2021/10/04 09:30:44.000   53.830391833   13.233407999    73.8201   2  14   0.4742   0.5735   0.9568   0.3464   0.2090   0.2475   0.00    1.3
2021/10/04 09:30:45.000   53.830394122   13.233386732    79.2289   2  15   0.6082   0.5058   0.7018   0.4561  -0.1448  -0.1450   0.00    1.0
2021/10/04 09:30:46.000   53.830387277   13.233379659    78.0190   2  15   0.4492   0.3884   0.5734   0.3217  -0.0528   0.0883   0.00    1.1
2021/10/04 09:30:47.000   53.830374347   13.233389410    75.9626   2  13   0.7606   0.7531   1.1742   0.5622   0.2002   0.4016   0.00  999.9
2021/10/04 09:30:48.000   53.830379759   13.233388258    76.3757   2  14   0.6934   0.6926   1.1369   0.4674   0.1467   0.4205   0.00    0.0
2021/10/04 09:30:49.000   53.830383147   13.233415899    78.0017   2  14   0.7094   0.6600   1.0427   0.4644   0.3417   0.4274   0.00    1.5
2021/10/04 09:30:50.000   53.830451863   13.233480768    89.6117   2  13   0.5266   0.4922   0.8175   0.3534   0.2600   0.3474   0.00    1.1
2021/10/04 09:30:51.000   53.830373810   13.233422273    75.2841   2  13   0.7012   0.5180   1.1028   0.5112   0.2913   0.5385   0.00    1.0
2021/10/04 09:30:52.000   53.830365962   13.233400676    74.5775   1  13   0.0308   0.0161   0.0445   0.0198   0.0196   0.0337   0.00   12.0
2021/10/04 09:30:53.000   53.830371349   13.233385850    76.6872   2  15   0.6226   0.5556   0.9766   0.3717   0.1194   0.2530   0.00    2.0
2021/10/04 09:30:54.000   53.830376736   13.233404780    76.2088   2  15   0.5850   0.5227   0.9615   0.3146  -0.0966   0.1832   0.00    1.6
2021/10/04 09:30:55.000   53.830378974   13.233400283    75.3714   2  15   0.5530   0.3845   0.7558   0.2237  -0.1601   0.3378   0.00    1.2
2021/10/04 09:30:56.000   53.830377217   13.233407598    75.3230   2  15   0.3993   0.3101   0.5901   0.1821  -0.1017   0.2178   0.00    1.0
2021/10/04 09:30:57.000   53.830376955   13.233407545    74.8723   2  16   0.3276   0.2651   0.5018   0.1540  -0.0699   0.1684   0.00    2.1
2021/10/04 09:30:58.000   53.830376270   13.233410266    74.8552   1  16   0.0259   0.0109   0.0197   0.0071   0.0113  -0.0045   0.00    4.9
2021/10/04 09:30:59.000   53.830374531   13.233404067    74.8909   2  16   0.2564   0.2151   0.4080   0.1255  -0.0207   0.1258   0.00    1.4
2021/10/04 09:31:00.000   53.830375551   13.233401476    74.5554   2  15   0.2377   0.2010   0.3761   0.1207   0.0354   0.1205   0.00    2.1
2021/10/04 09:31:01.000   53.830376227   13.233401333    74.2510   2  14   0.2246   0.1894   0.3515   0.1166   0.0474   0.1153   0.00    2.2
2021/10/04 09:31:02.000   53.830377698   13.233400721    74.2383   2  13   0.2135   0.1817   0.3342   0.1154   0.0540   0.1108   0.00    1.2
2021/10/04 09:31:03.000   53.830373134   13.233393317    73.6920   2  16   0.2009   0.1726   0.3157   0.1092   0.0528   0.1044   0.00    1.1
2021/10/04 09:31:04.000   53.830374114   13.233394090    73.0451   2  15   0.1892   0.1644   0.2979   0.1031   0.0458   0.0932   0.00    2.3
2021/10/04 09:31:05.000   53.830375542   13.233395062    73.2001   2  16   0.1780   0.1560   0.2818   0.0955   0.0407   0.0844   0.00    1.1
2021/10/04 09:31:06.000   53.830376014   13.233395158    73.3148   2  16   0.1687   0.1488   0.2683   0.0895   0.0364   0.0772   0.00    1.3
2021/10/04 09:31:07.000   53.830376857   13.233395409    73.3427   2  16   0.1608   0.1427   0.2566   0.0845   0.0328   0.0714   0.00    1.1
2021/10/04 09:31:08.000   53.830377983   13.233395095    73.3580   2  16   0.1537   0.1369   0.2461   0.0808   0.0280   0.0671   0.00    1.2
2021/10/04 09:31:09.000   53.830378674   13.233394885    73.3619   2  16   0.1475   0.1319   0.2369   0.0776   0.0236   0.0635   0.00    1.2
2021/10/04 09:31:10.000   53.830379011   13.233394698    73.3732   2  16   0.1421   0.1274   0.2286   0.0748   0.0197   0.0603   0.00    1.2
2021/10/04 09:31:11.000   53.830378853   13.233394281    73.3727   2  16   0.1372   0.1233   0.2212   0.0722   0.0158   0.0575   0.00    1.1
2021/10/04 09:31:12.000   53.830379647   13.233396654    73.2814   2  15   0.1335   0.1223   0.2168   0.0718  -0.0197   0.0545   0.00    1.3
2021/10/04 09:31:13.000   53.830371243   13.233374733    74.7216   2  14   0.5263   0.6392   0.9516   0.5061  -0.4998   0.3301   0.00    1.0
2021/10/04 09:31:14.000   53.830359637   13.233368891    76.9028   2  12   0.7804   0.7445   1.2074   0.5722  -0.1551   0.3384   0.00   11.3
2021/10/04 09:31:15.000   53.830379709   13.233373711    78.2396   2  13   0.7237   0.5856   1.1681   0.3715   0.3008   0.5974   0.00    5.7
2021/10/04 09:31:16.000   53.830366035   13.233367416    78.0033   2   9   0.8916   0.5845   1.2953   0.5614   0.5664   0.6714   0.00    2.0
2021/10/04 09:31:17.000   53.830343808   13.233395148    73.6236   2  13   0.7429   0.6974   1.2092   0.4950   0.2625   0.3976   0.00   46.4
2021/10/04 09:31:18.000   53.830343569   13.233405913    72.6759   2  13   0.6642   0.6409   1.2554   0.3226   0.2700   0.5007   0.00    0.0
2021/10/04 09:31:19.000   53.830360926   13.233411920    77.0885   1  14   0.5913   0.1561   0.8542   0.2924   0.3484   0.7103   0.00    3.3
2021/10/04 09:31:20.000   53.830364759   13.233418446    77.7384   2  14   0.6483   0.4512   0.9909   0.2760   0.3416   0.6085   0.00    2.8
2021/10/04 09:31:21.000   53.830368852   13.233411154    77.5513   1  14   0.0274   0.0112   0.0560   0.0154   0.0215   0.0380   0.00    4.9
2021/10/04 09:31:22.000   53.830372679   13.233403002    77.9249   2  13   0.4101   0.3178   0.6388   0.1845   0.2077   0.3533   0.00    1.8
2021/10/04 09:31:23.000   53.830529805   13.233373767    94.2036   2  14   0.3553   0.2811   0.5552   0.1552   0.1759   0.2960   0.00    1.3
2021/10/04 09:31:24.000   53.830493567   13.233378250    94.1707   2  15   0.3146   0.2530   0.4953   0.1405   0.1565   0.2551   0.00    1.2
2021/10/04 09:31:25.000   53.830406141   13.233371714    82.1099   2  13   0.8583   0.2376   1.2358   0.2352   0.2744   0.9912   0.00    2.0
2021/10/04 09:31:26.000   53.830472228   13.233379218    92.2729   2  13   0.2839   0.2198   0.4486   0.1340   0.1465   0.2447   0.00    2.0
2021/10/04 09:31:27.000   53.830451667   13.233373592    88.7977   2  13   0.2622   0.2083   0.4147   0.1237   0.1335   0.2197   0.00    1.2
2021/10/04 09:31:28.000   53.830452480   13.233367854    88.7309   2  12   0.2472   0.1988   0.3887   0.1144   0.1232   0.2023   0.00    1.1
2021/10/04 09:31:29.000   53.830449595   13.233363872    88.2212   2  12   0.2346   0.1905   0.3673   0.1068   0.1148   0.1882   0.00    1.3
2021/10/04 09:31:30.000   53.830439456   13.233362859    86.4553   2  13   0.2231   0.1825   0.3485   0.1007   0.1092   0.1770   0.00    1.3
2021/10/04 09:31:31.000   53.830435843   13.233365355    85.7409   2  13   0.2182   0.1751   0.3408   0.0993   0.1079   0.1781   0.00    1.2
2021/10/04 09:31:32.000   53.830434769   13.233366951    85.2179   2  13   0.2128   0.1686   0.3327   0.0981   0.1068   0.1771   0.00    1.3
2021/10/04 09:31:33.000   53.830429767   13.233362661    84.2129   2  13   0.2080   0.1628   0.3254   0.0968   0.1056   0.1760   0.00    1.9
2021/10/04 09:31:34.000   53.830421987   13.233363677    84.4133   2  13   0.2035   0.1575   0.3187   0.0955   0.1044   0.1748   0.00    1.1
2021/10/04 09:31:35.000   53.830432178   13.233364903    86.5671   2  14   0.1959   0.1523   0.3075   0.0920   0.1001   0.1674   0.00    1.2
2021/10/04 09:31:36.000   53.830427757   13.233369476    85.1651   2  14   0.1894   0.1476   0.2978   0.0888   0.0963   0.1614   0.00    2.1
2021/10/04 09:31:37.000   53.830427747   13.233364130    84.2816   2  15   0.1823   0.1433   0.2877   0.0858   0.0928   0.1541   0.00    1.4
2021/10/04 09:31:38.000   53.830424411   13.233357926    82.7879   2  14   0.1763   0.1394   0.2786   0.0829   0.0896   0.1478   0.00    1.6
2021/10/04 09:31:39.000   53.830408856   13.233373305    83.1036   2  14   0.1711   0.1359   0.2704   0.0803   0.0868   0.1423   0.00    1.0
2021/10/04 09:31:40.000   53.830405040   13.233370751    81.4446   2  14   0.1660   0.1325   0.2627   0.0777   0.0840   0.1370   0.00    1.8
2021/10/04 09:31:41.000   53.830392780   13.233365241    79.9727   2  13   0.1619   0.1297   0.2557   0.0748   0.0813   0.1324   0.00    1.6
2021/10/04 09:31:42.000   53.830390929   13.233357585    77.6826   2  13   0.1581   0.1270   0.2492   0.0721   0.0788   0.1282   0.00    1.0
2021/10/04 09:31:43.000   53.830398794   13.233361235    78.6809   2  12   0.1548   0.1248   0.2432   0.0701   0.0764   0.1243   0.00    1.1
2021/10/04 09:31:44.000   53.830395189   13.233356323    78.6826   2  14   0.1507   0.1225   0.2384   0.0687   0.0746   0.1207   0.00    1.0
2021/10/04 09:31:45.000   53.830395284   13.233356992    79.1243   2  14   0.1498   0.1204   0.2359   0.0693   0.0752   0.1218   0.00    1.2
2021/10/04 09:31:46.000   53.830398919   13.233361021    79.3804   2  15   0.1454   0.1182   0.2301   0.0678   0.0734   0.1173   0.00    1.0
2021/10/04 09:31:47.000   53.830395183   13.233361647    79.0563   2  14   0.1447   0.1163   0.2279   0.0683   0.0739   0.1183   0.00    1.0
2021/10/04 09:31:48.000   53.830393573   13.233363378    78.8449   2  14   0.1431   0.1148   0.2247   0.0690   0.0739   0.1173   0.00    1.6
2021/10/04 09:31:49.000   53.830389767   13.233361603    78.8271   2  11   0.1416   0.1132   0.2231   0.0685   0.0738   0.1176   0.00    1.1
2021/10/04 09:31:50.000   53.830388663   13.233363105    78.9386   2  12   0.1400   0.1115   0.2211   0.0679   0.0734   0.1175   0.00    1.2
2021/10/04 09:31:51.000   53.830389880   13.233365286    79.0043   2  13   0.1378   0.1100   0.2175   0.0671   0.0713   0.1151   0.00    1.2
2021/10/04 09:31:52.000   53.830388610   13.233366695    79.0923   2  13   0.1355   0.1084   0.2142   0.0661   0.0693   0.1128   0.00    1.6
2021/10/04 09:31:53.000   53.830392281   13.233371691    79.4188   2  12   0.1344   0.1071   0.2125   0.0660   0.0685   0.1125   0.00    1.2
2021/10/04 09:31:54.000   53.830391986   13.233374298    79.4693   2  12   0.1332   0.1059   0.2108   0.0658   0.0677   0.1122   0.00    1.0
2021/10/04 09:31:55.000   53.830388268   13.233365121    79.6456   2  11   0.1324   0.1045   0.2092   0.0656   0.0677   0.1123   0.00    1.3
2021/10/04 09:31:56.000   53.830390273   13.233372471    79.9214   2  13   0.1307   0.1030   0.2073   0.0647   0.0672   0.1118   0.00    2.4
2021/10/04 09:31:57.000   53.830390188   13.233375865    79.6455   2  14   0.1292   0.1016   0.2052   0.0641   0.0669   0.1110   0.00    1.3
2021/10/04 09:31:58.000   53.830389064   13.233378490    79.3944   2  14   0.1276   0.1003   0.2031   0.0635   0.0665   0.1101   0.00    1.1
2021/10/04 09:31:59.000   53.830392950   13.233384534    79.5273   2  14   0.1261   0.0990   0.2011   0.0629   0.0661   0.1094   0.00    1.1
2021/10/04 09:32:00.000   53.830373769   13.233372155    79.1623   2  14   0.1248   0.0979   0.1992   0.0624   0.0657   0.1086   0.00    1.1
2021/10/04 09:32:01.000   53.830384871   13.233378104    79.3923   2  14   0.1244   0.0970   0.1976   0.0627   0.0656   0.1084   0.00    1.2
2021/10/04 09:32:02.000   53.830390014   13.233382518    79.6730   2  14   0.1224   0.0958   0.1946   0.0617   0.0644   0.1062   0.00    1.8
2021/10/04 09:32:03.000   53.830389898   13.233387580    79.4088   2  14   0.1205   0.0951   0.1924   0.0609   0.0620   0.1041   0.00    2.2
2021/10/04 09:32:04.000   53.830395255   13.233395107    79.5147   2  14   0.1182   0.0938   0.1897   0.0596   0.0607   0.1022   0.00    1.4
2021/10/04 09:32:05.000   53.830390081   13.233386151    79.3736   2  14   0.1170   0.0933   0.1869   0.0600   0.0594   0.1001   0.00    1.3
2021/10/04 09:32:06.000   53.830359729   13.233384718    74.3551   2  17   0.5027   0.4851   0.8855   0.2232   0.2928   0.3117   0.00    1.1
2021/10/04 09:32:07.000   53.830355245   13.233385779    75.1367   2  17   0.4573   0.4463   0.7383   0.2401   0.1804   0.4055   0.00    1.6
2021/10/04 09:32:08.000   53.830346792   13.233372314    73.7269   2  17   0.3272   0.3129   0.5437   0.1565   0.1229   0.2574   0.00    1.2
2021/10/04 09:32:09.000   53.830345395   13.233372929    73.1463   2  17   0.2701   0.2564   0.4539   0.1258   0.0965   0.1969   0.00    1.1
2021/10/04 09:32:10.000   53.830345620   13.233374915    72.9702   2  17   0.2368   0.2228   0.3994   0.1089   0.0807   0.1623   0.00    1.1
2021/10/04 09:32:11.000   53.830347779   13.233376481    72.9340   2  17   0.2129   0.1996   0.3604   0.0971   0.0710   0.1411   0.00    1.2
2021/10/04 09:32:12.000   53.830349003   13.233380870    72.8531   2  17   0.1952   0.1824   0.3311   0.0884   0.0643   0.1260   0.00    1.2
2021/10/04 09:32:13.000   53.830349592   13.233381920    73.1373   2  17   0.1814   0.1691   0.3079   0.0819   0.0591   0.1145   0.00    1.1
2021/10/04 09:32:14.000   53.830349808   13.233382341    72.9623   2  17   0.1701   0.1583   0.2891   0.0763   0.0551   0.1056   0.00    1.0
2021/10/04 09:32:15.000   53.830350574   13.233382883    73.1077   2  17   0.1607   0.1494   0.2733   0.0718   0.0517   0.0985   0.00    1.1
2021/10/04 09:32:16.000   53.830351237   13.233382824    73.1479   2  17   0.1527   0.1419   0.2599   0.0680   0.0489   0.0925   0.00    1.1
2021/10/04 09:32:17.000   53.830352111   13.233380670    73.1292   2  17   0.1458   0.1353   0.2483   0.0647   0.0464   0.0874   0.00    1.3
2021/10/04 09:32:18.000   53.830352640   13.233381131    73.2125   2  17   0.1397   0.1294   0.2380   0.0616   0.0450   0.0835   0.00    1.3
2021/10/04 09:32:19.000   53.830353367   13.233380804    73.2321   2  17   0.1343   0.1244   0.2290   0.0591   0.0429   0.0796   0.00    1.2
2021/10/04 09:32:20.000   53.830353944   13.233381094    73.2582   2  17   0.1295   0.1199   0.2209   0.0568   0.0411   0.0762   0.00    1.3
2021/10/04 09:32:21.000   53.830354559   13.233381617    73.2418   2  18   0.1252   0.1158   0.2135   0.0548   0.0398   0.0733   0.00    1.3
2021/10/04 09:32:22.000   53.830355222   13.233381760    73.2521   2  17   0.1213   0.1122   0.2069   0.0530   0.0384   0.0706   0.00    1.4
2021/10/04 09:32:23.000   53.830356008   13.233381665    73.2407   2  18   0.1176   0.1088   0.2008   0.0512   0.0373   0.0681   0.00    1.4
2021/10/04 09:32:24.000   53.830356333   13.233382143    73.2335   2  18   0.1143   0.1058   0.1952   0.0497   0.0363   0.0659   0.00    1.5
2021/10/04 09:32:25.000   53.830356719   13.233381885    73.2458   2  17   0.1115   0.1033   0.1903   0.0489   0.0341   0.0633   0.00    1.5
2021/10/04 09:32:26.000   53.830356859   13.233382026    73.2650   2  17   0.1089   0.1010   0.1857   0.0481   0.0322   0.0608   0.00    1.5
2021/10/04 09:32:27.000   53.830357513   13.233382352    73.2679   2  18   0.1062   0.0985   0.1812   0.0468   0.0314   0.0591   0.00    1.5
2021/10/04 09:32:28.000   53.830358120   13.233382690    73.2358   2  18   0.1037   0.0962   0.1770   0.0455   0.0308   0.0575   0.00    1.5
2021/10/04 09:32:29.000   53.830358367   13.233383030    73.2206   2  18   0.1014   0.0941   0.1731   0.0444   0.0302   0.0560   0.00    1.4
2021/10/04 09:32:30.000   53.830358736   13.233383376    73.2285   2  18   0.0992   0.0920   0.1693   0.0432   0.0295   0.0545   0.00    1.4
2021/10/04 09:32:31.000   53.830358915   13.233384394    73.2722   2  18   0.0971   0.0901   0.1659   0.0422   0.0289   0.0532   0.00    1.1
2021/10/04 09:32:32.000   53.830358785   13.233386086    73.2693   2  18   0.0951   0.0884   0.1626   0.0412   0.0284   0.0519   0.00    1.2
2021/10/04 09:32:33.000   53.830358393   13.233385288    72.9744   2  17   0.0934   0.0868   0.1595   0.0406   0.0275   0.0505   0.00    1.1
2021/10/04 09:32:34.000   53.830358972   13.233386519    73.3581   2  18   0.0916   0.0852   0.1565   0.0397   0.0269   0.0494   0.00    1.0
2021/10/04 09:32:35.000   53.830359462   13.233387181    73.3748   2  18   0.0899   0.0837   0.1537   0.0389   0.0265   0.0482   0.00    1.1
2021/10/04 09:32:36.000   53.830360362   13.233385191    73.3939   2  17   0.0886   0.0826   0.1512   0.0389   0.0249   0.0466   0.00    1.1
2021/10/04 09:32:37.000   53.830361155   13.233383469    73.4200   2  17   0.0873   0.0814   0.1488   0.0386   0.0238   0.0454   0.00    1.1
2021/10/04 09:32:38.000   53.830361880   13.233383849    73.4466   2  18   0.0858   0.0800   0.1463   0.0377   0.0238   0.0446   0.00    1.0
2021/10/04 09:32:39.000   53.830362442   13.233384437    73.4608   2  18   0.0844   0.0787   0.1440   0.0370   0.0235   0.0438   0.00    1.1
2021/10/04 09:32:40.000   53.830362419   13.233385293    73.5032   2  18   0.0832   0.0775   0.1418   0.0363   0.0232   0.0430   0.00    1.1
2021/10/04 09:32:41.000   53.830362315   13.233387142    73.5521   2  18   0.0819   0.0764   0.1397   0.0357   0.0229   0.0423   0.00    1.2
2021/10/04 09:32:42.000   53.830361977   13.233387673    73.6207   2  17   0.0808   0.0755   0.1380   0.0354   0.0228   0.0414   0.00    1.2
2021/10/04 09:32:43.000   53.830362066   13.233388237    73.6503   2  16   0.0798   0.0746   0.1363   0.0352   0.0219   0.0405   0.00    1.3
2021/10/04 09:32:44.000   53.830362365   13.233389316    73.5922   2  17   0.0789   0.0737   0.1346   0.0350   0.0212   0.0396   0.00    1.3
2021/10/04 09:32:45.000   53.830362792   13.233388519    73.9194   2  16   0.0780   0.0729   0.1330   0.0348   0.0204   0.0388   0.00    1.4
2021/10/04 09:32:46.000   53.830363339   13.233388621    73.7174   2  17   0.0771   0.0720   0.1314   0.0344   0.0199   0.0382   0.00    1.3
2021/10/04 09:32:47.000   53.830363780   13.233386742    73.6866   2  17   0.0761   0.0712   0.1299   0.0342   0.0194   0.0375   0.00    1.4
2021/10/04 09:32:48.000   53.830363972   13.233386299    73.6663   2  17   0.0754   0.0704   0.1284   0.0339   0.0188   0.0370   0.00    1.4
2021/10/04 09:32:49.000   53.830364254   13.233386958    73.6653   2  17   0.0746   0.0697   0.1270   0.0336   0.0187   0.0368   0.00    1.0
2021/10/04 09:32:50.000   53.830364695   13.233387232    73.6655   2  17   0.0737   0.0688   0.1256   0.0330   0.0189   0.0365   0.00    1.1
2021/10/04 09:32:51.000   53.830364790   13.233387497    73.6538   2  18   0.0727   0.0678   0.1241   0.0323   0.0193   0.0364   0.00    1.1
2021/10/04 09:32:52.000   53.830364792   13.233387341    73.6334   2  18   0.0718   0.0669   0.1227   0.0316   0.0198   0.0362   0.00    1.3
2021/10/04 09:32:53.000   53.830365706   13.233387272    73.6073   2  18   0.0709   0.0661   0.1213   0.0311   0.0199   0.0360   0.00    1.0
2021/10/04 09:32:54.000   53.830365441   13.233387312    73.6597   2  18   0.0702   0.0654   0.1201   0.0307   0.0196   0.0355   0.00    1.5
2021/10/04 09:32:55.000   53.830364895   13.233388793    73.6903   2  17   0.0694   0.0646   0.1188   0.0302   0.0198   0.0353   0.00    1.3
2021/10/04 09:32:56.000   53.830365585   13.233388875    73.6813   2  18   0.0685   0.0639   0.1176   0.0297   0.0199   0.0351   0.00    1.1
2021/10/04 09:32:57.000   53.830365469   13.233389020    73.7244   2  18   0.0678   0.0631   0.1163   0.0291   0.0202   0.0349   0.00    1.3
2021/10/04 09:32:58.000   53.830365622   13.233386687    73.7261   2  18   0.0670   0.0624   0.1151   0.0286   0.0203   0.0348   0.00    1.2
2021/10/04 09:32:59.000   53.830365849   13.233386468    73.7401   2  18   0.0663   0.0618   0.1140   0.0282   0.0201   0.0344   0.00    1.3
2021/10/04 09:33:00.000   53.830365866   13.233386565    73.7376   2  18   0.0657   0.0612   0.1130   0.0280   0.0200   0.0340   0.00    1.2
2021/10/04 09:33:01.000   53.830365798   13.233386826    73.7962   2  18   0.0651   0.0606   0.1119   0.0277   0.0197   0.0336   0.00    1.2
2021/10/04 09:33:02.000   53.830366088   13.233387755    73.7917   2  18   0.0644   0.0601   0.1109   0.0273   0.0197   0.0333   0.00    1.1
2021/10/04 09:33:03.000   53.830365558   13.233389897    73.8297   2  17   0.0637   0.0595   0.1099   0.0269   0.0196   0.0330   0.00    1.1
2021/10/04 09:33:04.000   53.830365905   13.233389912    73.8135   2  18   0.0632   0.0589   0.1090   0.0266   0.0198   0.0330   0.00    1.2
2021/10/04 09:33:05.000   53.830367191   13.233389838    73.8048   2  14   0.0636   0.0597   0.1094   0.0276   0.0163   0.0327   0.00    1.1
2021/10/04 09:33:06.000   53.830368641   13.233386793    73.8071   2  14   0.0720   0.0605   0.1214   0.0245  -0.0093   0.0538   0.00    1.3
2021/10/04 09:33:07.000   53.830367353   13.233389272    73.7993   2  17   0.0720   0.0609   0.1236   0.0229  -0.0183   0.0554   0.00    1.8
2021/10/04 09:33:08.000   53.830368654   13.233386466    73.8228   2  16   0.0680   0.0600   0.1160   0.0263  -0.0043   0.0460   0.00    2.2
2021/10/04 09:33:09.000   53.830368263   13.233385442    73.7952   2  16   0.0669   0.0603   0.1139   0.0261  -0.0068   0.0435   0.00    1.7
2021/10/04 09:33:10.000   53.830368177   13.233385250    73.7840   2  15   0.0659   0.0596   0.1127   0.0252  -0.0070   0.0425   0.00    1.7
2021/10/04 09:33:11.000   53.830365062   13.233379272    74.0747   2  15   0.0651   0.0588   0.1119   0.0240  -0.0034   0.0424   0.00    1.1
2021/10/04 09:33:12.000   53.830348888   13.233390155    69.3645   2  14   0.0658   0.0604   0.1131   0.0227  -0.0161   0.0438   0.00    1.2
2021/10/04 09:33:13.000   53.830354430   13.233380480    72.6342   2  16   0.0760   0.0621   0.1310   0.0053  -0.0346   0.0666   0.00    1.1
2021/10/04 09:33:14.000   53.830350087   13.233377914    72.7396   2  14   0.0718   0.0614   0.1238   0.0148  -0.0297   0.0584   0.00    1.2
2021/10/04 09:33:15.000   53.830371565   13.233395919    68.9184   2  17   0.0704   0.0609   0.1209   0.0165  -0.0274   0.0558   0.00    1.0
2021/10/04 09:33:16.000   53.830297195   13.233220581    71.0919   2  17   0.3316   0.1976   0.5903  -0.2463  -0.3307   0.4364   0.00    1.6
2021/10/04 09:33:17.000   53.830377592   13.233392884    74.4942   2  15   0.5089   0.4718   0.8559   0.2474   0.2705   0.3750   0.00    1.2
2021/10/04 09:33:18.000   53.830369887   13.233390504    73.9773   2  18   0.4566   0.4133   0.8021   0.1415   0.2378   0.3137   0.00    2.2
2021/10/04 09:33:19.000   53.830368841   13.233392969    74.5090   2  18   0.4587   0.4140   0.8031   0.1398   0.2377   0.3111   0.00    1.2
2021/10/04 09:33:20.000   53.830369289   13.233390089    74.3282   2  18   0.3257   0.2941   0.5702   0.0984   0.1679   0.2198   0.00    1.1
2021/10/04 09:33:21.000   53.830368977   13.233386763    73.8330   2  18   0.2662   0.2404   0.4662   0.0805   0.1368   0.1798   0.00    1.0
2021/10/04 09:33:22.000   53.830369002   13.233386709    73.6529   2  18   0.2313   0.2086   0.4046   0.0699   0.1187   0.1559   0.00    1.1
2021/10/04 09:33:23.000   53.830368299   13.233385970    73.4920   2  18   0.2073   0.1868   0.3623   0.0626   0.1063   0.1395   0.00    1.1
2021/10/04 09:33:24.000   53.830368204   13.233386024    73.4035   2  18   0.1895   0.1706   0.3310   0.0572   0.0971   0.1274   0.00    1.0
2021/10/04 09:33:25.000   53.830368252   13.233386197    73.3612   2  18   0.1756   0.1580   0.3066   0.0530   0.0899   0.1179   0.00    1.2
2021/10/04 09:33:26.000   53.830368376   13.233386321    73.3422   2  18   0.1644   0.1479   0.2870   0.0497   0.0842   0.1105   0.00    1.4
2021/10/04 09:33:27.000   53.830368466   13.233386358    73.3182   2  18   0.1551   0.1396   0.2708   0.0469   0.0794   0.1042   0.00    1.5
2021/10/04 09:33:28.000   53.830368495   13.233386405    73.2913   2  18   0.1472   0.1325   0.2570   0.0446   0.0753   0.0989   0.00    1.6
2021/10/04 09:33:29.000   53.830368514   13.233386521    73.2880   2  18   0.1404   0.1264   0.2451   0.0425   0.0718   0.0943   0.00    1.5
2021/10/04 09:33:30.000   53.830368533   13.233386654    73.2957   2  18   0.1345   0.1210   0.2347   0.0407   0.0687   0.0902   0.00    1.5
2021/10/04 09:33:31.000   53.830368515   13.233386966    73.3044   2  18   0.1292   0.1163   0.2255   0.0391   0.0659   0.0866   0.00    1.6
2021/10/04 09:33:32.000   53.830368524   13.233387267    73.3270   2  18   0.1245   0.1121   0.2173   0.0377   0.0635   0.0834   0.00    1.6
2021/10/04 09:33:33.000   53.830368551   13.233387590    73.3385   2  18   0.1202   0.1083   0.2099   0.0364   0.0613   0.0804   0.00    1.6
2021/10/04 09:33:34.000   53.830368562   13.233387828    73.3425   2  18   0.1164   0.1049   0.2032   0.0352   0.0593   0.0778   0.00    1.6
2021/10/04 09:33:35.000   53.830368586   13.233388028    73.3492   2  18   0.1128   0.1017   0.1971   0.0341   0.0575   0.0753   0.00    1.6
2021/10/04 09:33:36.000   53.830368613   13.233388210    73.3545   2  18   0.1096   0.0989   0.1915   0.0330   0.0558   0.0730   0.00    1.6
2021/10/04 09:33:37.000   53.830368675   13.233388295    73.3578   2  18   0.1066   0.0962   0.1863   0.0321   0.0542   0.0709   0.00    1.6
2021/10/04 09:33:38.000   53.830368753   13.233388416    73.3607   2  18   0.1038   0.0938   0.1814   0.0312   0.0527   0.0690   0.00    1.6
2021/10/04 09:33:39.000   53.830368791   13.233388515    73.3595   2  18   0.1012   0.0916   0.1770   0.0304   0.0515   0.0671   0.00    1.7
2021/10/04 09:33:40.000   53.830368840   13.233388651    73.3622   2  18   0.0988   0.0894   0.1728   0.0296   0.0501   0.0654   0.00    1.7
2021/10/04 09:33:41.000   53.830368883   13.233388761    73.3641   2  18   0.0965   0.0875   0.1689   0.0288   0.0490   0.0638   0.00    1.7
2021/10/04 09:33:42.000   53.830368928   13.233388903    73.3652   2  18   0.0944   0.0856   0.1652   0.0281   0.0478   0.0622   0.00    1.7
2021/10/04 09:33:43.000   53.830368963   13.233388933    73.3629   2  18   0.0924   0.0839   0.1617   0.0275   0.0468   0.0607   0.00    1.7
2021/10/04 09:33:44.000   53.830369007   13.233389088    73.3673   2  18   0.0905   0.0823   0.1584   0.0268   0.0458   0.0593   0.00    1.7
2021/10/04 09:33:45.000   53.830369053   13.233389202    73.3760   2  18   0.0887   0.0807   0.1553   0.0262   0.0448   0.0580   0.00    1.8
2021/10/04 09:33:46.000   53.830369127   13.233389288    73.3912   2  18   0.0870   0.0793   0.1524   0.0256   0.0439   0.0567   0.00    1.8
2021/10/04 09:33:47.000   53.830369187   13.233389333    73.3978   2  18   0.0853   0.0779   0.1496   0.0250   0.0430   0.0555   0.00    1.8
2021/10/04 09:33:48.000   53.830369214   13.233389357    73.4138   2  18   0.0838   0.0766   0.1469   0.0245   0.0422   0.0543   0.00    1.8
2021/10/04 09:33:49.000   53.830369229   13.233389373    73.4144   2  18   0.0823   0.0753   0.1444   0.0239   0.0414   0.0532   0.00    1.8
2021/10/04 09:33:50.000   53.830369266   13.233389442    73.4190   2  18   0.0808   0.0741   0.1419   0.0235   0.0407   0.0521   0.00    1.8
2021/10/04 09:33:51.000   53.830369342   13.233389448    73.4323   2  18   0.0795   0.0730   0.1396   0.0230   0.0399   0.0510   0.00    1.9
2021/10/04 09:33:52.000   53.830369428   13.233389470    73.4394   2  18   0.0782   0.0718   0.1373   0.0225   0.0392   0.0500   0.00    1.9
2021/10/04 09:33:53.000   53.830369500   13.233389465    73.4402   2  18   0.0769   0.0708   0.1352   0.0220   0.0386   0.0490   0.00    1.9
2021/10/04 09:33:54.000   53.830369580   13.233389522    73.4458   2  18   0.0757   0.0698   0.1331   0.0216   0.0378   0.0480   0.00    1.9
2021/10/04 09:33:55.000   53.830369649   13.233389555    73.4542   2  18   0.0745   0.0688   0.1311   0.0212   0.0372   0.0472   0.00    1.9
2021/10/04 09:33:56.000   53.830369714   13.233389534    73.4548   2  18   0.0734   0.0679   0.1292   0.0207   0.0366   0.0462   0.00    1.9
2021/10/04 09:33:57.000   53.830369789   13.233389509    73.4554   2  18   0.0723   0.0670   0.1273   0.0203   0.0360   0.0453   0.00    2.0
2021/10/04 09:33:58.000   53.830369834   13.233389510    73.4602   2  18   0.0712   0.0662   0.1255   0.0199   0.0354   0.0445   0.00    2.0
2021/10/04 09:33:59.000   53.830369903   13.233389497    73.4614   2  18   0.0702   0.0653   0.1238   0.0195   0.0349   0.0436   0.00    2.0
2021/10/04 09:34:00.000   53.830369966   13.233389529    73.4735   2  18   0.0692   0.0645   0.1221   0.0190   0.0343   0.0428   0.00    2.0
2021/10/04 09:34:01.000   53.830370042   13.233389505    73.4807   2  18   0.0683   0.0637   0.1205   0.0186   0.0337   0.0421   0.00    2.0
2021/10/04 09:34:02.000   53.830370102   13.233389525    73.4818   2  18   0.0674   0.0630   0.1189   0.0183   0.0332   0.0412   0.00    2.1
2021/10/04 09:34:03.000   53.830370167   13.233389485    73.4876   2  18   0.0664   0.0623   0.1174   0.0179   0.0328   0.0405   0.00    2.1
2021/10/04 09:34:04.000   53.830370223   13.233389478    73.4872   2  18   0.0655   0.0616   0.1159   0.0176   0.0323   0.0397   0.00    2.1
2021/10/04 09:34:05.000   53.830370312   13.233389497    73.4984   2  18   0.0647   0.0609   0.1145   0.0172   0.0318   0.0390   0.00    2.1
2021/10/04 09:34:06.000   53.830370372   13.233389496    73.5037   2  18   0.0638   0.0603   0.1130   0.0169   0.0314   0.0383   0.00    2.1
2021/10/04 09:34:07.000   53.830370425   13.233389553    73.5105   2  18   0.0631   0.0596   0.1117   0.0165   0.0309   0.0376   0.00    2.2
2021/10/04 09:34:08.000   53.830370507   13.233389610    73.5220   2  18   0.0623   0.0590   0.1103   0.0162   0.0304   0.0369   0.00    2.2
2021/10/04 09:34:09.000   53.830370566   13.233389607    73.5235   2  18   0.0615   0.0584   0.1091   0.0159   0.0300   0.0362   0.00    2.2
2021/10/04 09:34:10.000   53.830370614   13.233389613    73.5290   2  18   0.0608   0.0578   0.1078   0.0156   0.0296   0.0356   0.00    2.2
2021/10/04 09:34:11.000   53.830370685   13.233389650    73.5404   2  18   0.0600   0.0572   0.1066   0.0151   0.0291   0.0349   0.00    2.2
2021/10/04 09:34:12.000   53.830370742   13.233389609    73.5487   2  18   0.0593   0.0567   0.1053   0.0148   0.0287   0.0342   0.00    2.2
2021/10/04 09:34:13.000   53.830370781   13.233389579    73.5524   2  18   0.0586   0.0561   0.1042   0.0145   0.0283   0.0336   0.00    2.2
2021/10/04 09:34:14.000   53.830370810   13.233389612    73.5591   2  18   0.0579   0.0556   0.1030   0.0142   0.0279   0.0330   0.00    2.2
2021/10/04 09:34:15.000   53.830370839   13.233389654    73.5700   2  18   0.0572   0.0551   0.1019   0.0140   0.0275   0.0324   0.00    2.2
2021/10/04 09:34:16.000   53.830370853   13.233389648    73.5714   2  18   0.0566   0.0546   0.1008   0.0136   0.0272   0.0318   0.00    2.2
2021/10/04 09:34:17.000   53.830370888   13.233389665    73.5737   2  18   0.0560   0.0542   0.0998   0.0133   0.0268   0.0312   0.00    2.2
2021/10/04 09:34:18.000   53.830370918   13.233389738    73.5798   2  18   0.0553   0.0537   0.0987   0.0129   0.0264   0.0306   0.00    2.3
2021/10/04 09:34:19.000   53.830370927   13.233389780    73.5825   2  18   0.0548   0.0532   0.0977   0.0127   0.0261   0.0300   0.00    2.3
2021/10/04 09:34:20.000   53.830370947   13.233389819    73.5845   2  18   0.0542   0.0528   0.0967   0.0124   0.0257   0.0294   0.00    2.3
2021/10/04 09:34:21.000   53.830370977   13.233389802    73.5817   2  18   0.0535   0.0523   0.0957   0.0121   0.0255   0.0289   0.00    2.3
2021/10/04 09:34:22.000   53.830371011   13.233389846    73.5847   2  18   0.0529   0.0519   0.0948   0.0119   0.0251   0.0283   0.00    2.3
2021/10/04 09:34:23.000   53.830371022   13.233389855    73.5823   2  18   0.0524   0.0515   0.0938   0.0114   0.0248   0.0278   0.00    2.3
2021/10/04 09:34:24.000   53.830371052   13.233389907    73.5857   2  18   0.0518   0.0511   0.0929   0.0113   0.0244   0.0273   0.00    2.3
2021/10/04 09:34:25.000   53.830371042   13.233389920    73.5874   2  18   0.0513   0.0507   0.0920   0.0108   0.0241   0.0267   0.00    2.3
2021/10/04 09:34:26.000   53.830371095   13.233389953    73.5887   2  18   0.0508   0.0503   0.0911   0.0106   0.0238   0.0262   0.00    2.3
2021/10/04 09:34:27.000   53.830371119   13.233389953    73.5904   2  18   0.0502   0.0499   0.0902   0.0103   0.0235   0.0257   0.00    2.3
2021/10/04 09:34:28.000   53.830371146   13.233389976    73.5958   2  18   0.0497   0.0495   0.0894   0.0101   0.0233   0.0251   0.00    2.3
2021/10/04 09:34:29.000   53.830371111   13.233389974    73.5874   2  18   0.0493   0.0492   0.0886   0.0096   0.0230   0.0246   0.00    2.3
2021/10/04 09:34:30.000   53.830371238   13.233390399    73.6232   2  18   0.0488   0.0488   0.0878   0.0093   0.0227   0.0241   0.00    2.2
2021/10/04 09:34:31.000   53.830371384   13.233390209    73.6214   2  18   0.0483   0.0486   0.0872   0.0093   0.0229   0.0237   0.00    1.5
2021/10/04 09:34:32.000   53.830371365   13.233390163    73.6097   2  17   0.0479   0.0484   0.0867   0.0090   0.0231   0.0232   0.00    2.5
2021/10/04 09:34:33.000   53.830371335   13.233390311    73.6132   2  17   0.0474   0.0481   0.0860   0.0088   0.0230   0.0229   0.00    2.9
2021/10/04 09:34:34.000   53.830371281   13.233391792    73.8184   2  17   0.0471   0.0476   0.0852   0.0088   0.0225   0.0226   0.00    1.9
2021/10/04 09:34:35.000   53.830371950   13.233391922    73.4258   1  16   0.0050   0.0053   0.0093  -0.0018   0.0040   0.0015   0.00    4.1
2021/10/04 09:34:36.000   53.830372020   13.233392073    73.4410   1  17   0.0051   0.0054   0.0093  -0.0015   0.0040   0.0010   0.00    3.9
2021/10/04 09:34:37.000   53.830371755   13.233390809    73.7003   2  17   0.0459   0.0469   0.0836   0.0078   0.0226   0.0215   0.00    1.5
2021/10/04 09:34:38.000   53.830371714   13.233390861    73.7059   2  17   0.0455   0.0466   0.0829   0.0077   0.0224   0.0212   0.00    1.9
2021/10/04 09:34:39.000   53.830371695   13.233390883    73.7142   2  17   0.0452   0.0463   0.0823   0.0076   0.0223   0.0208   0.00    2.2
2021/10/04 09:34:40.000   53.830371685   13.233390877    73.7137   2  17   0.0449   0.0460   0.0818   0.0073   0.0222   0.0205   0.00    2.5
2021/10/04 09:34:41.000   53.830371646   13.233390893    73.7210   2  17   0.0445   0.0457   0.0812   0.0072   0.0221   0.0202   0.00    2.8
2021/10/04 09:34:42.000   53.830371903   13.233392205    73.4484   1  17   0.0049   0.0046   0.0089  -0.0008   0.0032   0.0026   0.00    3.1
2021/10/04 09:34:43.000   53.830371904   13.233392187    73.4462   1  17   0.0051   0.0044   0.0087   0.0008   0.0035   0.0021   0.00    3.1
2021/10/04 09:34:44.000   53.830371908   13.233392199    73.4492   1  17   0.0050   0.0044   0.0087   0.0016   0.0033   0.0025   0.00    3.0
2021/10/04 09:34:45.000   53.830371889   13.233392245    73.4472   1  17   0.0046   0.0047   0.0084   0.0006   0.0026   0.0028   0.00    3.0
2021/10/04 09:34:46.000   53.830371525   13.233390792    73.7072   2  17   0.0429   0.0445   0.0785   0.0058   0.0217   0.0185   0.00    3.0
2021/10/04 09:34:47.000   53.830371490   13.233390871    73.7098   2  17   0.0425   0.0442   0.0779   0.0056   0.0215   0.0182   0.00    2.9
2021/10/04 09:34:48.000   53.830371449   13.233390785    73.7009   2  17   0.0422   0.0440   0.0774   0.0050   0.0215   0.0178   0.00    2.9
2021/10/04 09:34:49.000   53.830371444   13.233390807    73.6962   2  17   0.0419   0.0437   0.0769   0.0050   0.0214   0.0175   0.00    2.8
2021/10/04 09:34:50.000   53.830371426   13.233390794    73.6957   2  17   0.0416   0.0435   0.0764   0.0044   0.0213   0.0171   0.00    2.7
2021/10/04 09:34:51.000   53.830371403   13.233390805    73.6982   2  17   0.0413   0.0433   0.0759   0.0040   0.0212   0.0169   0.00    2.7
2021/10/04 09:34:52.000   53.830371356   13.233390814    73.6984   2  17   0.0410   0.0431   0.0753   0.0041   0.0210   0.0165   0.00    2.6
2021/10/04 09:34:53.000   53.830371326   13.233390708    73.6895   2  17   0.0407   0.0429   0.0749   0.0033   0.0210   0.0162   0.00    2.6
2021/10/04 09:34:54.000   53.830370285   13.233393357    73.9391   2  17   0.0404   0.0428   0.0745   0.0016   0.0213   0.0157   0.00    1.0
2021/10/04 09:34:55.000   53.830420471   13.233204142    53.8324   2  15   0.0629   0.1107   0.1764  -0.0675   0.1280  -0.0835   0.00    1.0
2021/10/04 09:34:56.000   53.830374155   13.233326463    67.9044   2  13   0.6578   0.8608   1.4592  -0.1768   0.8219   0.4623   0.00    7.3
2021/10/04 09:34:57.000   53.830394324   13.233298004    71.4860   2  11   0.7502   1.2113   1.3186  -0.6608   0.6883  -0.1337   0.00    0.0
2021/10/04 09:34:58.000   53.830381129   13.233368310    72.7040   2  10   0.9710   1.4305   1.3915  -1.0345   0.9131  -0.5785   0.00    2.5
2021/10/04 09:34:59.000   53.830359735   13.233422951    75.3038   1  17   0.3928   0.2709   0.2892  -0.3259   0.2795  -0.3367   0.00    7.1
2021/10/04 09:35:00.000   53.830358724   13.233466520    74.8223   2  16   0.4738   0.4920   0.8349  -0.1116   0.3397   0.2554   0.00    2.7
2021/10/04 09:35:01.000   53.830343890   13.233473112    76.5664   2  17   0.4615   0.4472   0.8134   0.0871   0.2842   0.2908   0.00    1.1
2021/10/04 09:35:02.000   53.830329969   13.233487262    75.8995   2  17   0.3291   0.3175   0.5770   0.0647   0.2003   0.2065   0.00    1.1
2021/10/04 09:35:03.000   53.830322898   13.233500717    75.5950   2  17   0.2710   0.2668   0.4736   0.0323   0.1715   0.1653   0.00    1.7
2021/10/04 09:35:04.000   53.830317587   13.233504925    75.6379   2  16   0.2365   0.2348   0.4126   0.0083   0.1524   0.1399   0.00    1.0
2021/10/04 09:35:05.000   53.830315361   13.233490438    73.9790   2  17   0.2113   0.2082   0.3685   0.0212   0.1339   0.1265   0.00    1.1
2021/10/04 09:35:06.000   53.830316793   13.233491666    73.8822   2  17   0.1934   0.1890   0.3370   0.0244   0.1213   0.1163   0.00    1.1
2021/10/04 09:35:07.000   53.830317029   13.233496216    74.4573   2  16   0.1815   0.1760   0.3157   0.0125   0.1155   0.1073   0.00    1.3
2021/10/04 09:35:08.000   53.830312508   13.233501497    74.5059   2  18   0.1682   0.1621   0.2933   0.0238   0.1047   0.1006   0.00    1.3
2021/10/04 09:35:09.000   53.830308751   13.233506319    73.8883   2  17   0.1583   0.1526   0.2760   0.0240   0.0982   0.0950   0.00    1.2
2021/10/04 09:35:10.000   53.830300770   13.233525607    74.0106   2  17   0.1499   0.1446   0.2616   0.0237   0.0928   0.0902   0.00    1.0
2021/10/04 09:35:11.000   53.830293490   13.233548299    74.3847   2  17   0.1431   0.1390   0.2500   0.0191   0.0900   0.0851   0.00    1.0
2021/10/04 09:35:12.000   53.830287386   13.233567538    74.4482   2  18   0.1368   0.1320   0.2392   0.0219   0.0849   0.0819   0.00    1.1
2021/10/04 09:35:13.000   53.830282294   13.233587353    74.4462   2  18   0.1311   0.1258   0.2294   0.0239   0.0803   0.0794   0.00    1.1
2021/10/04 09:35:14.000   53.830276542   13.233606244    74.4608   2  18   0.1262   0.1205   0.2210   0.0247   0.0766   0.0767   0.00    1.1
2021/10/04 09:35:15.000   53.830269515   13.233623503    74.4196   2  17   0.1220   0.1166   0.2136   0.0237   0.0742   0.0740   0.00    1.3
2021/10/04 09:35:16.000   53.830262733   13.233643126    74.4772   2  18   0.1180   0.1124   0.2068   0.0241   0.0713   0.0718   0.00    1.5
2021/10/04 09:35:17.000   53.830256367   13.233661756    74.5525   2  18   0.1144   0.1085   0.2004   0.0246   0.0685   0.0700   0.00    1.4
2021/10/04 09:35:18.000   53.830249756   13.233680358    74.5635   2  18   0.1110   0.1051   0.1945   0.0248   0.0659   0.0684   0.00    1.4
2021/10/04 09:35:19.000   53.830243651   13.233699483    74.5525   2  18   0.1080   0.1019   0.1893   0.0247   0.0638   0.0666   0.00    1.4
2021/10/04 09:35:20.000   53.830238202   13.233719280    74.8677   2  18   0.1051   0.0990   0.1843   0.0248   0.0617   0.0651   0.00    1.5
2021/10/04 09:35:21.000   53.830231328   13.233739133    74.7325   2  18   0.1025   0.0964   0.1798   0.0247   0.0600   0.0635   0.00    1.6
2021/10/04 09:35:22.000   53.830224843   13.233759318    74.7140   2  18   0.1001   0.0940   0.1755   0.0246   0.0582   0.0622   0.00    1.7
2021/10/04 09:35:23.000   53.830218201   13.233779860    74.7376   2  18   0.0978   0.0917   0.1716   0.0243   0.0567   0.0607   0.00    1.8
2021/10/04 09:35:24.000   53.830210866   13.233798889    74.7058   2  18   0.0956   0.0896   0.1679   0.0242   0.0553   0.0595   0.00    1.9
2021/10/04 09:35:25.000   53.830203788   13.233817838    74.6803   2  18   0.0936   0.0876   0.1643   0.0239   0.0538   0.0584   0.00    2.2
2021/10/04 09:35:26.000   53.830197061   13.233836306    74.6603   2  18   0.0917   0.0858   0.1611   0.0236   0.0526   0.0572   0.00    2.3
2021/10/04 09:35:27.000   53.830190680   13.233856349    74.6385   2  18   0.0899   0.0840   0.1579   0.0234   0.0513   0.0562   0.00    2.3
2021/10/04 09:35:28.000   53.830183861   13.233876526    74.6393   2  18   0.0882   0.0824   0.1549   0.0231   0.0502   0.0551   0.00    2.4
2021/10/04 09:35:29.000   53.830178155   13.233893588    74.6798   2  18   0.0866   0.0809   0.1521   0.0228   0.0492   0.0542   0.00    2.1
2021/10/04 09:35:30.000   53.830172934   13.233908574    74.6338   2  18   0.0851   0.0794   0.1494   0.0226   0.0482   0.0532   0.00    2.0
2021/10/04 09:35:31.000   53.830167245   13.233926553    74.6661   2  18   0.0836   0.0780   0.1469   0.0223   0.0473   0.0523   0.00    2.4
2021/10/04 09:35:32.000   53.830159729   13.233946707    74.7359   2  18   0.0822   0.0767   0.1445   0.0221   0.0463   0.0515   0.00    2.5
2021/10/04 09:35:33.000   53.830153231   13.233966633    74.7501   2  18   0.0808   0.0754   0.1421   0.0218   0.0455   0.0507   0.00    2.6
2021/10/04 09:35:34.000   53.830146285   13.233986285    74.7269   2  18   0.0796   0.0742   0.1399   0.0215   0.0446   0.0499   0.00    2.6
2021/10/04 09:35:35.000   53.830139520   13.234005596    74.7677   2  18   0.0784   0.0732   0.1379   0.0212   0.0441   0.0491   0.00    1.9
2021/10/04 09:35:36.000   53.830132839   13.234025066    74.7327   2  18   0.0772   0.0721   0.1358   0.0210   0.0432   0.0484   0.00    2.5
2021/10/04 09:35:37.000   53.830125833   13.234043584    74.7605   2  18   0.0761   0.0710   0.1338   0.0208   0.0424   0.0477   0.00    1.4
2021/10/04 09:35:38.000   53.830118593   13.234063891    74.7293   2  18   0.0750   0.0700   0.1319   0.0206   0.0417   0.0470   0.00    1.8
2021/10/04 09:35:39.000   53.830112063   13.234084442    74.7100   2  18   0.0739   0.0690   0.1300   0.0204   0.0410   0.0464   0.00    2.0
2021/10/04 09:35:40.000   53.830104567   13.234104581    74.7122   2  18   0.0729   0.0681   0.1283   0.0202   0.0404   0.0457   0.00    2.2
2021/10/04 09:35:41.000   53.830097106   13.234123693    74.7175   2  18   0.0720   0.0673   0.1266   0.0198   0.0399   0.0450   0.00    1.6
2021/10/04 09:35:42.000   53.830090796   13.234143383    74.7348   2  18   0.0710   0.0664   0.1250   0.0196   0.0393   0.0444   0.00    1.3
2021/10/04 09:35:43.000   53.830084072   13.234162944    74.7470   2  18   0.0701   0.0657   0.1234   0.0195   0.0388   0.0438   0.00    1.2
2021/10/04 09:35:44.000   53.830077202   13.234181763    74.7615   2  18   0.0693   0.0648   0.1220   0.0192   0.0383   0.0433   0.00    1.3
2021/10/04 09:35:45.000   53.830070551   13.234201832    74.7292   2  18   0.0684   0.0641   0.1206   0.0191   0.0379   0.0428   0.00    1.3
2021/10/04 09:35:46.000   53.830063632   13.234221932    74.7166   2  18   0.0676   0.0634   0.1192   0.0188   0.0375   0.0423   0.00    1.8
2021/10/04 09:35:47.000   53.830057086   13.234241981    74.6839   2  18   0.0669   0.0627   0.1179   0.0185   0.0370   0.0418   0.00    1.6
2021/10/04 09:35:48.000   53.830051548   13.234257157    74.1737   2  18   0.0661   0.0620   0.1167   0.0183   0.0366   0.0413   0.00    1.3
2021/10/04 09:35:49.000   53.830043214   13.234279530    74.4549   2  18   0.0653   0.0613   0.1155   0.0182   0.0363   0.0408   0.00    1.6
2021/10/04 09:35:50.000   53.830035953   13.234299110    74.4448   2  18   0.0646   0.0607   0.1143   0.0180   0.0358   0.0404   0.00    1.3
2021/10/04 09:35:51.000   53.830028816   13.234318335    74.4451   2  18   0.0639   0.0600   0.1132   0.0178   0.0354   0.0400   0.00    1.1
2021/10/04 09:35:52.000   53.830021796   13.234338359    74.4784   2  18   0.0632   0.0596   0.1121   0.0174   0.0352   0.0395   0.00    1.5
2021/10/04 09:35:53.000   53.830015293   13.234357685    74.4192   2  18   0.0625   0.0589   0.1110   0.0174   0.0347   0.0391   0.00    2.0
2021/10/04 09:35:54.000   53.830008506   13.234376397    74.3800   2  18   0.0619   0.0583   0.1099   0.0172   0.0343   0.0387   0.00    2.2
2021/10/04 09:35:55.000   53.830001744   13.234395076    74.3616   2  18   0.0612   0.0579   0.1089   0.0169   0.0341   0.0383   0.00    1.0
2021/10/04 09:35:56.000   53.829995347   13.234411747    74.3458   2  17   0.0607   0.0574   0.1080   0.0166   0.0338   0.0378   0.00    1.9
2021/10/04 09:35:57.000   53.829985434   13.234437841    75.9142   2  18   0.0600   0.0568   0.1070   0.0163   0.0336   0.0374   0.00    1.2
2021/10/04 09:35:58.000   53.829987210   13.234433666    75.2758   2  18   0.0594   0.0563   0.1060   0.0162   0.0332   0.0370   0.00    1.7
2021/10/04 09:35:59.000   53.829990808   13.234425975    74.4036   2  17   0.0589   0.0560   0.1052   0.0158   0.0333   0.0364   0.00    1.0
2021/10/04 09:36:00.000   53.829990144   13.234425650    74.3611   2  17   0.0584   0.0559   0.1044   0.0151   0.0333   0.0359   0.00    2.1
2021/10/04 09:36:01.000   53.829990232   13.234425662    74.3665   2  17   0.0580   0.0553   0.1036   0.0150   0.0329   0.0355   0.00    2.3
2021/10/04 09:36:02.000   53.829991802   13.234428304    74.4329   2  17   0.0575   0.0549   0.1028   0.0148   0.0328   0.0351   0.00    1.3
2021/10/04 09:36:03.000   53.829992213   13.234429097    74.5213   2  18   0.0570   0.0545   0.1019   0.0149   0.0324   0.0348   0.00    1.4
2021/10/04 09:36:04.000   53.829989785   13.234433258    74.5197   2  18   0.0565   0.0540   0.1011   0.0149   0.0323   0.0344   0.00    1.3
2021/10/04 09:36:05.000   53.829986838   13.234447252    74.5170   2  18   0.0561   0.0538   0.1004   0.0149   0.0324   0.0341   0.00    1.2
2021/10/04 09:36:06.000   53.829985648   13.234454568    74.3496   2  18   0.0556   0.0533   0.0995   0.0151   0.0320   0.0340   0.00    1.0
2021/10/04 09:36:07.000   53.829983374   13.234459881    74.2106   2  17   0.0552   0.0538   0.0989   0.0139   0.0324   0.0335   0.00    1.1
2021/10/04 09:36:08.000   53.829982048   13.234460662    73.7823   2  17   0.0549   0.0530   0.0984   0.0143   0.0320   0.0329   0.00    2.0
2021/10/04 09:36:09.000   53.829981705   13.234459116    73.5579   2  16   0.0548   0.0531   0.0985   0.0154   0.0331   0.0335   0.00    1.0
2021/10/04 09:36:10.000   53.829981782   13.234458497    73.5198   2  17   0.0545   0.0527   0.0978   0.0161   0.0329   0.0335   0.00    1.3
2021/10/04 09:36:11.000   53.829978352   13.234449107    73.4179   2  15   0.1938   0.3310   0.2764  -0.2459  -0.2872   0.2200   0.00    1.4
2021/10/04 09:36:12.000   53.829983360   13.234453776    71.1762   1  15   0.0113   0.0085   0.0145   0.0050  -0.0043  -0.0087   0.00   10.7
2021/10/04 09:36:13.000   53.829978906   13.234447186    72.1585   2  15   0.0944   0.2502   0.1031  -0.1337   0.0408   0.0119   0.00    1.0
2021/10/04 09:36:14.000   53.829965828   13.234526755    72.1176   2  16   0.0638   0.0752   0.1028  -0.0345   0.0405   0.0071   0.00    1.1
2021/10/04 09:36:15.000   53.829967298   13.234505038    72.1335   2  18   0.0627   0.0715   0.1019  -0.0311   0.0403   0.0082   0.00    1.4
2021/10/04 09:36:16.000   53.829969339   13.234499759    72.1394   2  17   0.0618   0.0694   0.1011  -0.0290   0.0397   0.0092   0.00    1.8
2021/10/04 09:36:17.000   53.829971001   13.234501903    72.0743   2  16   0.0612   0.0680   0.1003  -0.0273   0.0391   0.0098   0.00    1.2
2021/10/04 09:36:18.000   53.829970950   13.234498265    72.0620   2  16   0.0606   0.0668   0.0996  -0.0260   0.0386   0.0107   0.00    1.2
2021/10/04 09:36:19.000   53.829970488   13.234487961    72.0464   2  16   0.0601   0.0658   0.0989  -0.0249   0.0380   0.0115   0.00    1.0
2021/10/04 09:36:20.000   53.829972199   13.234484058    72.2017   2  16   0.0598   0.0653   0.0986  -0.0237   0.0369   0.0111   0.00    1.2
2021/10/04 09:36:21.000   53.829970857   13.234464182    71.6256   2  17   0.1295   0.4292   0.7921   0.2116   0.1734  -0.1615   0.00    1.2
2021/10/04 09:36:22.000   53.829971060   13.234466072    72.4026   2  18   0.0978   0.2963   0.5501   0.1436   0.1543  -0.0958   0.00    1.0
2021/10/04 09:36:23.000   53.829970961   13.234464443    72.7288   2  18   0.0860   0.2404   0.4470   0.1155   0.1327  -0.0702   0.00    1.1
2021/10/04 09:36:24.000   53.829971398   13.234465668    72.7178   2  18   0.0796   0.2077   0.3869   0.0992   0.1175  -0.0554   0.00    1.1
2021/10/04 09:36:25.000   53.829971776   13.234467055    72.8420   2  18   0.0754   0.1856   0.3460   0.0882   0.1065  -0.0450   0.00    1.1
2021/10/04 09:36:26.000   53.829972016   13.234467054    72.7749   2  18   0.0724   0.1695   0.3164   0.0802   0.0983  -0.0369   0.00    1.1
2021/10/04 09:36:27.000   53.829972173   13.234466902    72.7631   2  18   0.0701   0.1570   0.2932   0.0740   0.0916  -0.0300   0.00    1.2
2021/10/04 09:36:28.000   53.829972330   13.234466609    72.7729   2  18   0.0682   0.1469   0.2747   0.0690   0.0862  -0.0238   0.00    1.0
2021/10/04 09:36:29.000   53.829972435   13.234466104    72.7738   2  18   0.0667   0.1386   0.2593   0.0648   0.0816  -0.0180   0.00    1.1
2021/10/04 09:36:30.000   53.829972576   13.234465654    72.7548   2  18   0.0654   0.1315   0.2462   0.0613   0.0776  -0.0115   0.00    1.2
2021/10/04 09:36:31.000   53.829972702   13.234465243    72.7366   2  18   0.0642   0.1254   0.2349   0.0583   0.0742   0.0039   0.00    1.1
2021/10/04 09:36:32.000   53.829972855   13.234464877    72.7273   2  18   0.0631   0.1201   0.2251   0.0557   0.0712   0.0117   0.00    1.0
2021/10/04 09:36:33.000   53.829972983   13.234464519    72.7212   2  18   0.0622   0.1155   0.2165   0.0533   0.0685   0.0152   0.00    1.1
2021/10/04 09:36:34.000   53.829973104   13.234464190    72.7257   2  18   0.0613   0.1113   0.2087   0.0512   0.0661   0.0175   0.00    1.1
2021/10/04 09:36:35.000   53.829973238   13.234463885    72.7514   2  18   0.0606   0.1075   0.2017   0.0493   0.0639   0.0193   0.00    1.0
2021/10/04 09:36:36.000   53.829973361   13.234463617    72.7652   2  18   0.0598   0.1041   0.1954   0.0476   0.0619   0.0207   0.00    1.0
2021/10/04 09:36:37.000   53.829973456   13.234463371    72.7818   2  18   0.0591   0.1010   0.1896   0.0461   0.0600   0.0217   0.00    1.1
2021/10/04 09:36:38.000   53.829973586   13.234463210    72.7905   2  18   0.0585   0.0982   0.1844   0.0447   0.0583   0.0225   0.00    1.1
2021/10/04 09:36:39.000   53.829973705   13.234463027    72.8055   2  18   0.0579   0.0956   0.1795   0.0434   0.0568   0.0231   0.00    1.2
2021/10/04 09:36:40.000   53.829973815   13.234462842    72.8082   2  18   0.0573   0.0931   0.1749   0.0421   0.0553   0.0237   0.00    1.2
2021/10/04 09:36:41.000   53.829973929   13.234462682    72.8129   2  18   0.0567   0.0909   0.1707   0.0410   0.0539   0.0241   0.00    1.2
