% program   : RTKPOST ver.2.4.3 b34
% inp file  : C:\Users\BMI24\dlr\Kampagnen\Demmin1\nav\ublox_complete.obs
% inp file  : C:\Users\BMI24\dlr\Kampagnen\Demmin1\nav\sapos\0789Altentreptow\0789277j.21o
% inp file  : C:\Users\BMI24\dlr\Kampagnen\Demmin1\nav\sapos\0789Altentreptow\0789277j.21*
% obs start : 2021/10/04 09:29:03.0 GPST (week2178 120543.0s)
% obs end   : 2021/10/04 14:58:01.0 GPST (week2178 140281.0s)
% pos mode  : Kinematic
% freqs     : L1+2
% solution  : Forward
% elev mask : 10.0 deg
% dynamics  : off
% tidecorr  : off
% ionos opt : Broadcast
% tropo opt : Saastamoinen
% ephemeris : Broadcast
% navi sys  : GPS GLONASS
% amb res   : Continuous
% amb glo   : OFF
% val thres : 3.0
% antenna1  :                       ( 0.0000  0.0000  0.0000)
% antenna2  :                       ( 0.0000  0.0000  0.0000)
% ref pos   : 53.697662987   13.246374477    81.4752
%
% (lat/lon/height=WGS84/ellipsoidal,Q=1:fix,2:float,3:sbas,4:dgps,5:single,6:ppp,ns=# of satellites)
%  GPST                  latitude(deg) longitude(deg)  height(m)   Q  ns   sdn(m)   sde(m)   sdu(m)  sdne(m)  sdeu(m)  sdun(m) age(s)  ratio
2021/10/04 09:30:28.000   53.830363338   13.233354262    72.4168   2   6   0.8499   1.3757   2.0511   0.6582   0.6318   0.7066   0.00    0.0
2021/10/04 09:30:29.000   53.830363314   13.233355269    72.0167   2   6   0.6109   0.9867   1.4788   0.4715   0.4390   0.4983   0.00    0.0
2021/10/04 09:30:30.000   53.830365909   13.233352430    71.2507   2   4   1.7031   1.7892   2.7958   1.4947   1.8993   1.4487   0.00    0.0
2021/10/04 09:30:31.000   53.830364002   13.233321482    75.1300   2   5   0.5845   1.4552   2.8590   0.6424   0.8242   0.2503   0.00    0.0
2021/10/04 09:30:32.000   53.830370958   13.233327337    76.6524   2   6   0.5344   1.4160   2.3906   0.6539   0.5929   0.1918   0.00    0.0
2021/10/04 09:30:33.000   53.830364521   13.233362905    79.8436   2   5   0.4940   1.4527   2.7415   0.6451   0.8671   0.1070   0.00    0.0
2021/10/04 09:30:34.000   53.830345357   13.233344517    79.1036   2   4   1.3009   1.3120   3.1732   0.6706   1.1451  -1.4067   0.00    0.0
2021/10/04 09:30:35.000   53.830363121   13.233405302    75.1519   2   6   0.8624   1.2245   2.3515   0.5628  -0.9315  -0.6516   0.00    0.0
2021/10/04 09:30:36.000   53.830366273   13.233406924    72.7218   2   7   0.6193   0.8661   1.9126   0.3991  -0.7136  -0.5769   0.00    0.0
2021/10/04 09:30:37.000   53.830364577   13.233399647    73.8547   2   7   0.7706   0.7362   2.0169   0.2941  -0.7733  -0.0747   0.00    0.0
2021/10/04 09:30:38.000   53.830384653   13.233473889    72.1594   2   5   0.9707   1.5077   2.0625   1.0654   1.2215   0.9742   0.00    0.0
2021/10/04 09:30:39.000   53.830417996   13.233483536    80.6355   2   5   1.4634   1.7404   3.3654   0.9907   0.9451   1.8840   0.00    0.0
2021/10/04 09:30:40.000   53.830355759   13.233485214    68.1716   2   5   1.1685   1.9552   3.0175   0.8005   0.5311   1.3966   0.00    0.0
2021/10/04 09:30:41.000   53.830349857   13.233471670    62.0012   2   6   1.0406   1.6901   2.1811   1.0113   1.0602   0.9702   0.00    0.0
2021/10/04 09:30:42.000   53.830367438   13.233445505    68.3333   2   7   0.8499   1.3238   2.1023   0.3682  -0.7531   0.6862   0.00    0.0
2021/10/04 09:30:43.000   53.830367696   13.233418386    70.1609   2   7   0.8423   1.3087   2.1477  -0.2303  -0.4063   0.6640   0.00    0.0
2021/10/04 09:30:44.000   53.830381969   13.233416952    72.1758   2   6   0.6702   1.3511   1.8695   0.6310   0.2857   0.4487   0.00    0.0
2021/10/04 09:30:45.000   53.830362394   13.233400843    71.5306   2   7   0.8981   1.3242   2.1284   0.4660  -0.7653   0.4922   0.00    0.0
2021/10/04 09:30:46.000   53.830363210   13.233388816    70.1567   2   7   0.7992   1.1965   2.0339   0.6691  -0.4905   0.0520   0.00    0.0
2021/10/04 09:30:47.000   53.830361754   13.233387178    74.9507   2   6   1.1420   1.8027   2.2914   1.0439   0.7674   0.9366   0.00    0.0
2021/10/04 09:30:48.000   53.830386703   13.233413157    72.8793   2   6   0.9836   1.7143   2.5679   0.7135   1.1742   1.0735   0.00    0.0
2021/10/04 09:30:49.000   53.830384116   13.233403055    73.4491   2   6   1.0056   1.7306   2.6459   0.6838   1.2329   1.0113   0.00    0.0
2021/10/04 09:30:50.000   53.830360438   13.233398136    70.1388   2   6   0.9848   1.7222   2.6397   0.6578   1.2463   1.0301   0.00    0.0
2021/10/04 09:30:51.000   53.830379341   13.233437815    71.5143   2   6   1.0059   1.7313   2.6463   0.6846   1.2338   1.0121   0.00    0.0
2021/10/04 09:30:52.000   53.830369151   13.233363030    77.1489   2   5   1.1342   1.5504   2.8382   0.9710  -0.7481  -0.9878   0.00    0.0
2021/10/04 09:30:53.000   53.830378355   13.233383150    75.3424   2   7   0.7897   1.1729   2.0432   0.4423  -0.6745  -0.1326   0.00    0.0
2021/10/04 09:30:54.000   53.830381247   13.233389043    75.3245   2   7   0.7362   1.0226   1.9807   0.2055  -0.7239  -0.3056   0.00    0.0
2021/10/04 09:30:55.000   53.830385085   13.233381743    72.8068   2   7   0.7050   1.0111   1.8372  -0.0813  -0.6417   0.3102   0.00    0.0
2021/10/04 09:30:56.000   53.830387598   13.233392867    73.3028   2   7   0.5054   0.7228   1.3231  -0.0612  -0.4717   0.2208   0.00    0.0
2021/10/04 09:30:57.000   53.830386670   13.233388056    74.8799   2   8   0.4143   0.5723   1.0717  -0.0771  -0.3425   0.1777   0.00    0.0
2021/10/04 09:30:58.000   53.830385436   13.233384803    74.8530   2   8   0.3600   0.4896   0.9271  -0.0779  -0.2781   0.1495   0.00    0.0
2021/10/04 09:30:59.000   53.830383756   13.233378394    74.5925   2   8   0.4149   0.4421   1.4218   0.0639  -0.2833  -0.5262   0.00    0.0
2021/10/04 09:31:00.000   53.830384365   13.233374253    74.6288   2   7   0.3505   0.4116   1.1218   0.0532  -0.1864  -0.3527   0.00    0.0
2021/10/04 09:31:01.000   53.830383364   13.233371894    74.3421   2   6   0.7903   0.3931   1.1962   0.2286   0.1894   0.6759   0.00    0.0
2021/10/04 09:31:02.000   53.830388000   13.233375862    74.4030   2   6   0.8266   1.3173   1.0174   0.8908   0.3595   0.5117   0.00    0.0
2021/10/04 09:31:03.000   53.830377508   13.233342493    73.3782   2   8   0.5718   0.8569   0.8807   0.5308   0.2631   0.3979   0.00    0.0
2021/10/04 09:31:04.000   53.830376568   13.233340194    72.8047   2   7   0.5973   0.9365   0.7967   0.6282   0.2303   0.3444   0.00    0.0
2021/10/04 09:31:05.000   53.830396148   13.233393842    73.8476   2   8   0.4895   0.7340   0.7246   0.4741   0.1823   0.2991   0.00    0.0
2021/10/04 09:31:06.000   53.830392262   13.233384151    73.6734   2   8   0.3756   0.5457   0.6655   0.3018   0.0455   0.2391   0.00    0.0
2021/10/04 09:31:07.000   53.830392201   13.233384787    73.5068   2   8   0.3230   0.4604   0.6204   0.2236  -0.0737   0.2087   0.00    0.0
2021/10/04 09:31:08.000   53.830392482   13.233386008    73.4672   2   8   0.2902   0.4091   0.5838   0.1775  -0.0903   0.1882   0.00    0.0
2021/10/04 09:31:09.000   53.830391985   13.233385453    73.4357   2   8   0.2666   0.3730   0.5532   0.1461  -0.0951   0.1730   0.00    0.0
2021/10/04 09:31:10.000   53.830391228   13.233384557    73.4657   2   8   0.2485   0.3456   0.5273   0.1231  -0.0964   0.1608   0.00    0.0
2021/10/04 09:31:11.000   53.830389728   13.233381807    73.3742   2   8   0.2339   0.3238   0.5046   0.1054  -0.0954   0.1511   0.00    0.0
2021/10/04 09:31:12.000   53.830389497   13.233383865    73.2593   2   8   0.2237   0.3164   0.4868   0.0965  -0.0748   0.1456   0.00    0.0
2021/10/04 09:31:13.000   53.830379576   13.233362367    72.1895   2   7   0.7522   1.1682   1.9162   0.5096   0.8222   0.6959   0.00    0.0
2021/10/04 09:31:14.000   53.830348894   13.233334732    69.0678   2   5   1.1879   1.5751   2.5872   0.9605  -0.6247   0.6361   0.00    0.0
2021/10/04 09:31:15.000   53.830387265   13.233360361    74.9416   2   4   1.7528   1.4612   3.9417   0.6023  -0.3037   2.1703   0.00    0.0
2021/10/04 09:31:17.000   53.830318582   13.233377783    57.2251   2   6   1.0954   1.5177   2.7792   0.5749   1.2794   0.8481   0.00    0.0
2021/10/04 09:31:18.000   53.830345774   13.233420657    68.0977   2   6   1.0956   1.5181   2.7795   0.5753   1.2798   0.8485   0.00    0.0
2021/10/04 09:31:19.000   53.830353300   13.233453722    76.0490   2   6   1.0958   1.5184   2.7797   0.5758   1.2802   0.8490   0.00    0.0
2021/10/04 09:31:20.000   53.830350180   13.233450090    73.4711   2   6   1.0915   1.5067   2.7247   0.5923   1.2389   0.8808   0.00    0.0
2021/10/04 09:31:21.000   53.830335563   13.233374096    71.6994   2   5   1.4666   2.2064   3.1622   1.3926   2.0352   1.5512   0.00    0.0
2021/10/04 09:31:22.000   53.830360197   13.233417601    75.8603   2   6   0.8798   1.3457   2.5738   0.7033   1.4066   0.9281   0.00    0.0
2021/10/04 09:31:23.000   53.830364222   13.233365550    72.4976   2   6   1.0577   1.1657   2.3392   0.3853   1.3058   0.8740   0.00    0.0
2021/10/04 09:31:24.000   53.830356432   13.233358688    74.8132   2   6   0.7883   1.1172   2.1013  -0.1909   1.2695   0.4237   0.00    0.0
2021/10/04 09:31:25.000   53.830354150   13.233344096    75.8179   2   5   1.4614   1.2925   3.5812   0.4096   0.9249   1.7155   0.00    0.0
2021/10/04 09:31:26.000   53.830372584   13.233324932    75.2696   2   6   0.9306   1.1314   2.4679  -0.2131   1.1106   0.7134   0.00    0.0
2021/10/04 09:31:27.000   53.830375478   13.233307453    74.3199   2   6   0.8908   0.9100   2.4435   0.1210   0.8229   1.0667   0.00    0.0
2021/10/04 09:31:28.000   53.830373889   13.233300541    75.3886   2   5   0.8912   0.8400   2.3506  -0.2375   0.6863   1.1184   0.00    0.0
2021/10/04 09:31:29.000   53.830372789   13.233294877    76.5216   2   5   0.8687   0.7831   2.3258  -0.2547   0.6426   1.1412   0.00    0.0
2021/10/04 09:31:30.000   53.830375361   13.233292349    74.8735   2   6   0.6483   0.6861   1.6807  -0.0594   0.6518   0.7420   0.00    0.0
2021/10/04 09:31:31.000   53.830373628   13.233286519    74.4625   2   5   0.6128   0.6276   1.5593  -0.0259   0.5715   0.7162   0.00    0.0
2021/10/04 09:31:32.000   53.830372283   13.233284966    74.5443   2   5   0.5827   0.5826   1.4638   0.0240   0.5127   0.6906   0.00    0.0
2021/10/04 09:31:33.000   53.830369083   13.233279093    78.5779   2   5   0.5568   0.5465   1.3859   0.0337   0.4675   0.6668   0.00    0.0
2021/10/04 09:31:34.000   53.830367285   13.233268338    79.4814   2   5   0.5342   0.5167   1.3205   0.0364   0.4318   0.6447   0.00    0.0
2021/10/04 09:31:35.000   53.830367375   13.233265735    80.2022   2   5   0.5142   0.4915   1.2643   0.0374   0.4027   0.6244   0.00    0.0
2021/10/04 09:31:36.000   53.830366730   13.233305719    77.9676   2   5   0.4963   0.4697   1.2153   0.0375   0.3784   0.6057   0.00    0.0
2021/10/04 09:31:37.000   53.830370857   13.233275996    79.0669   2   6   0.4465   0.4500   1.1023   0.0755   0.3710   0.5255   0.00    0.0
2021/10/04 09:31:38.000   53.830375749   13.233280731    77.7947   2   5   0.4159   0.4398   1.0218   0.0556   0.3653   0.4671   0.00    0.0
2021/10/04 09:31:39.000   53.830379590   13.233285321    76.5435   2   5   0.3917   0.4303   0.9590   0.0324   0.3598   0.4219   0.00    0.0
2021/10/04 09:31:40.000   53.830380699   13.233286562    76.1422   2   5   0.3719   0.4217   0.9083  -0.0250   0.3548   0.3852   0.00    0.0
2021/10/04 09:31:41.000   53.830381417   13.233287366    75.3191   2   5   0.3553   0.4136   0.8661  -0.0441   0.3501   0.3548   0.00    0.0
2021/10/04 09:31:42.000   53.830377980   13.233283695    72.4176   2   5   0.3411   0.4061   0.8303  -0.0550   0.3456   0.3290   0.00    0.0
2021/10/04 09:31:43.000   53.830395306   13.233317883    74.4198   2   4   0.3294   0.4040   0.8002  -0.0511   0.3383   0.3058   0.00    0.0
2021/10/04 09:31:44.000   53.830409993   13.233342862    74.8827   2   7   0.7293   1.1508   0.7952   0.8437   0.5751   0.4709   0.00    0.0
2021/10/04 09:31:45.000   53.830416776   13.233291082    77.6145   2   6   1.1160   1.0006   1.1608   0.4926   0.2674   1.0008   0.00    0.0
2021/10/04 09:31:46.000   53.830415993   13.233301589    71.5841   2   6   1.0898   0.9382   2.5478   0.3856   0.8400   1.0601   0.00    0.0
2021/10/04 09:31:47.000   53.830395134   13.233278355    67.6431   2   6   1.0748   0.8711   2.5311   0.2947   0.7775   1.0358   0.00    0.0
2021/10/04 09:31:48.000   53.830393100   13.233290715    68.9857   2   6   0.8210   0.8098   1.8946   0.3941   0.7493   0.8093   0.00    0.0
2021/10/04 09:31:49.000   53.830215261   13.233304863    20.5833   2   4   0.8683   0.7707   2.0779   0.3825   0.6761   1.0868   0.00    0.0
2021/10/04 09:31:50.000   53.830132220   13.233314485    -2.3744   2   4   0.8428   0.7373   2.0356   0.3754   0.6359   1.1133   0.00    0.0
2021/10/04 09:31:51.000   53.830193225   13.233327641    14.0058   2   5   0.8053   0.6678   1.9891   0.3039   0.5491   1.1073   0.00    0.0
2021/10/04 09:31:52.000   53.830135217   13.233349185    -2.0954   2   5   0.7542   0.6157   1.8802   0.2537   0.4843   1.0509   0.00    0.0
2021/10/04 09:31:53.000   53.830166016   13.233358790     6.3221   2   5   0.7279   0.5747   1.8286   0.2119   0.4296   1.0304   0.00    0.0
2021/10/04 09:31:54.000   53.830141580   13.233378648    -0.2300   2   5   0.7104   0.5413   1.7949   0.1752   0.3819   1.0192   0.00    0.0
2021/10/04 09:31:56.000   53.830100680   13.233398272   -11.6107   2   5   0.6986   0.5134   1.7735   0.1427   0.3412   1.0142   0.00    0.0
2021/10/04 09:31:57.000   53.830139823   13.233400006     0.4158   2   6   0.5916   0.4886   1.4985   0.1482   0.3414   0.8355   0.00    0.0
2021/10/04 09:32:01.000   53.830212235   13.233325322   100.0615   2   6   0.7653   0.4725   2.8254  -0.1157  -0.2485   1.3761   0.00    0.0
2021/10/04 09:32:02.000   53.830445804   13.233357690    88.3854   2   5   1.2072   1.4443   3.2276   0.4212   1.2672   1.2950   0.00    0.0
2021/10/04 09:32:03.000   53.830427289   13.233382377    87.2781   2   6   1.1791   1.3803   3.0520   0.3955   1.1933   1.3754   0.00    0.0
2021/10/04 09:32:04.000   53.830441735   13.233427600    95.8823   2   6   1.0715   1.0557   2.8361   0.1886   0.8589   1.4747   0.00    0.0
2021/10/04 09:32:05.000   53.830421548   13.233490584    84.2726   2   6   1.1219   1.7365   2.4468   0.9741   0.8028   1.0557   0.00    0.0
2021/10/04 09:32:06.000   53.830327619   13.233335668    64.2819   2   8   0.7220   0.9882   1.7571   0.1081   0.4163   0.5747   0.00    0.0
2021/10/04 09:32:07.000   53.830338581   13.233348304    72.2733   2   8   0.7174   0.9544   1.7181  -0.0945   0.5257   0.6044   0.00    0.0
2021/10/04 09:32:08.000   53.830324924   13.233314107    68.2689   2   8   0.6818   0.6667   1.2326  -0.3082   0.1302   0.5693   0.00    0.0
2021/10/04 09:32:09.000   53.830331127   13.233286248    68.9231   2   8   0.6847   0.9095   1.1021  -0.1707  -0.4735   0.5687   0.00    0.0
2021/10/04 09:32:10.000   53.830334250   13.233298056    68.9684   2   8   0.4980   0.6584   0.9207  -0.1365  -0.3389   0.3786   0.00    0.0
2021/10/04 09:32:11.000   53.830340160   13.233312998    69.4838   2   8   0.4088   0.5404   0.8084  -0.1217  -0.2691   0.3024   0.00    0.0
2021/10/04 09:32:12.000   53.830342907   13.233325553    69.6710   2   8   0.3552   0.4697   0.7311  -0.1103  -0.2270   0.2571   0.00    0.0
2021/10/04 09:32:13.000   53.830344155   13.233332042    70.2437   2   8   0.3185   0.4205   0.6727  -0.1010  -0.1973   0.2265   0.00    0.0
2021/10/04 09:32:14.000   53.830345098   13.233336826    70.2248   2   8   0.2904   0.3838   0.6262  -0.0917  -0.1743   0.2021   0.00    0.0
2021/10/04 09:32:15.000   53.830346493   13.233341087    70.4930   2   8   0.2686   0.3555   0.5884  -0.0849  -0.1572   0.1840   0.00    0.0
2021/10/04 09:32:16.000   53.830347545   13.233342925    70.7347   2   8   0.2512   0.3327   0.5571  -0.0796  -0.1440   0.1697   0.00    0.0
2021/10/04 09:32:17.000   53.830348491   13.233341926    70.9516   2   8   0.2381   0.3139   0.5601  -0.0724  -0.1435   0.1428   0.00    0.0
2021/10/04 09:32:18.000   53.830349060   13.233342935    71.2612   2   8   0.2250   0.2958   0.5210  -0.0729  -0.1233   0.1446   0.00    0.0
2021/10/04 09:32:19.000   53.830350004   13.233343386    71.2905   2   8   0.2146   0.2822   0.4986  -0.0701  -0.1167   0.1385   0.00    0.0
2021/10/04 09:32:20.000   53.830350711   13.233344017    71.3611   2   8   0.2054   0.2705   0.4779  -0.0676  -0.1110   0.1342   0.00    0.0
2021/10/04 09:32:21.000   53.830351476   13.233344920    71.3064   2   9   0.1973   0.2595   0.4591  -0.0657  -0.1031   0.1298   0.00    0.0
2021/10/04 09:32:22.000   53.830352220   13.233345339    71.3422   2   8   0.1901   0.2504   0.4440  -0.0636  -0.0991   0.1252   0.00    0.0
2021/10/04 09:32:23.000   53.830353146   13.233345569    71.3251   2   9   0.1837   0.2418   0.4294  -0.0620  -0.0934   0.1213   0.00    0.0
2021/10/04 09:32:24.000   53.830353443   13.233346514    71.3034   2   9   0.1779   0.2341   0.4163  -0.0605  -0.0884   0.1176   0.00    0.0
2021/10/04 09:32:25.000   53.830353958   13.233346887    71.3048   2   9   0.1726   0.2270   0.4044  -0.0591  -0.0840   0.1142   0.00    0.0
2021/10/04 09:32:26.000   53.830354172   13.233347469    71.3005   2   9   0.1677   0.2206   0.3934  -0.0578  -0.0800   0.1110   0.00    0.0
2021/10/04 09:32:27.000   53.830354706   13.233348008    71.3118   2   9   0.1632   0.2147   0.3833  -0.0565  -0.0765   0.1080   0.00    0.0
2021/10/04 09:32:28.000   53.830355125   13.233348269    71.3205   2   9   0.1590   0.2092   0.3740  -0.0554  -0.0733   0.1052   0.00    0.0
2021/10/04 09:32:29.000   53.830355441   13.233348731    71.3222   2   9   0.1551   0.2041   0.3653  -0.0543  -0.0703   0.1026   0.00    0.0
2021/10/04 09:32:30.000   53.830355822   13.233349435    71.3321   2   9   0.1515   0.1994   0.3572  -0.0532  -0.0676   0.1001   0.00    0.0
2021/10/04 09:32:31.000   53.830356040   13.233350608    71.3755   2   9   0.1481   0.1950   0.3496  -0.0522  -0.0652   0.0978   0.00    0.0
2021/10/04 09:32:32.000   53.830355935   13.233352570    71.3530   2   9   0.1449   0.1909   0.3424  -0.0513  -0.0629   0.0956   0.00    0.0
2021/10/04 09:32:33.000   53.830355497   13.233352135    71.0475   2   8   0.1425   0.1877   0.3367  -0.0486  -0.0626   0.0935   0.00    0.0
2021/10/04 09:32:34.000   53.830355765   13.233352784    71.3706   2   9   0.1398   0.1840   0.3302  -0.0477  -0.0605   0.0917   0.00    0.0
2021/10/04 09:32:35.000   53.830356241   13.233353913    71.2836   2   9   0.1373   0.1805   0.3240  -0.0467  -0.0587   0.0897   0.00    0.0
2021/10/04 09:32:36.000   53.830357296   13.233353019    71.2472   2   9   0.1348   0.1770   0.3181  -0.0462  -0.0565   0.0882   0.00    0.0
2021/10/04 09:32:37.000   53.830358194   13.233352166    71.2320   2   9   0.1325   0.1739   0.3126  -0.0455  -0.0545   0.0868   0.00    0.0
2021/10/04 09:32:38.000   53.830358874   13.233353344    71.2240   2   9   0.1303   0.1709   0.3074  -0.0449  -0.0528   0.0854   0.00    0.0
2021/10/04 09:32:39.000   53.830359422   13.233355088    71.2421   2   9   0.1282   0.1680   0.3025  -0.0443  -0.0512   0.0840   0.00    0.0
2021/10/04 09:32:40.000   53.830359299   13.233356722    71.2924   2   9   0.1262   0.1653   0.2978  -0.0437  -0.0498   0.0827   0.00    0.0
2021/10/04 09:32:41.000   53.830359030   13.233359152    71.3263   2   9   0.1243   0.1628   0.2934  -0.0432  -0.0484   0.0814   0.00    0.0
2021/10/04 09:32:42.000   53.830358841   13.233360434    71.3750   2   9   0.1225   0.1604   0.2891  -0.0426  -0.0472   0.0802   0.00    0.0
2021/10/04 09:32:43.000   53.830358938   13.233361684    71.3770   2   8   0.1208   0.1583   0.2856  -0.0417  -0.0477   0.0786   0.00    0.0
2021/10/04 09:32:44.000   53.830359235   13.233364355    71.1356   2   9   0.1192   0.1560   0.2820  -0.0412  -0.0465   0.0771   0.00    0.0
2021/10/04 09:32:45.000   53.830359932   13.233361535    72.0190   2   8   0.1176   0.1541   0.2789  -0.0405  -0.0467   0.0757   0.00    0.0
2021/10/04 09:32:46.000   53.830360467   13.233364280    71.3786   2   9   0.1160   0.1518   0.2751  -0.0402  -0.0446   0.0749   0.00    0.0
2021/10/04 09:32:47.000   53.830360906   13.233363113    71.2354   2   9   0.1144   0.1498   0.2716  -0.0397  -0.0435   0.0738   0.00    0.0
2021/10/04 09:32:48.000   53.830360910   13.233363899    71.1336   2   9   0.1135   0.1481   0.2680  -0.0406  -0.0430   0.0738   0.00    0.0
2021/10/04 09:32:49.000   53.830361092   13.233364867    71.1412   2   8   0.1121   0.1474   0.2653  -0.0391  -0.0422   0.0734   0.00    0.0
2021/10/04 09:32:50.000   53.830361453   13.233365548    71.1257   2   8   0.1108   0.1453   0.2622  -0.0393  -0.0411   0.0730   0.00    0.0
2021/10/04 09:32:51.000   53.830361386   13.233366550    71.0817   2   9   0.1095   0.1436   0.2592  -0.0390  -0.0401   0.0719   0.00    0.0
2021/10/04 09:32:52.000   53.830361095   13.233367766    70.9146   2   9   0.1083   0.1416   0.2559  -0.0388  -0.0376   0.0711   0.00    0.0
2021/10/04 09:32:53.000   53.830362131   13.233368679    70.7719   2   9   0.1071   0.1400   0.2532  -0.0384  -0.0370   0.0702   0.00    0.0
2021/10/04 09:32:54.000   53.830361807   13.233368317    71.0270   2   9   0.1059   0.1385   0.2507  -0.0379  -0.0368   0.0692   0.00    0.0
2021/10/04 09:32:55.000   53.830361174   13.233369966    71.1359   2   8   0.1047   0.1371   0.2485  -0.0374  -0.0372   0.0683   0.00    0.0
2021/10/04 09:32:56.000   53.830361829   13.233370174    71.1533   2   9   0.1036   0.1356   0.2456  -0.0370  -0.0358   0.0677   0.00    0.0
2021/10/04 09:32:57.000   53.830361739   13.233370922    71.1761   2   9   0.1026   0.1340   0.2429  -0.0368  -0.0341   0.0670   0.00    0.0
2021/10/04 09:32:58.000   53.830362020   13.233369005    71.1553   2   9   0.1015   0.1324   0.2399  -0.0367  -0.0319   0.0666   0.00    0.0
2021/10/04 09:32:59.000   53.830362280   13.233369213    71.1489   2   9   0.1005   0.1311   0.2378  -0.0362  -0.0316   0.0657   0.00    0.0
2021/10/04 09:33:00.000   53.830362276   13.233369830    71.1534   2   9   0.0995   0.1298   0.2353  -0.0360  -0.0304   0.0653   0.00    0.0
2021/10/04 09:33:01.000   53.830362184   13.233370529    71.2006   2   9   0.0986   0.1286   0.2334  -0.0355  -0.0304   0.0644   0.00    0.0
2021/10/04 09:33:02.000   53.830362565   13.233371759    71.2158   2   9   0.0976   0.1274   0.2310  -0.0353  -0.0294   0.0640   0.00    0.0
2021/10/04 09:33:03.000   53.830362023   13.233374320    71.2636   2   8   0.0967   0.1263   0.2290  -0.0349  -0.0294   0.0633   0.00    0.0
2021/10/04 09:33:04.000   53.830362459   13.233374310    71.2974   2   9   0.0958   0.1251   0.2269  -0.0347  -0.0288   0.0628   0.00    0.0
2021/10/04 09:33:05.000   53.830365111   13.233372811    70.8798   2   6   0.3686   0.5130   1.1748  -0.4214   0.7561  -0.6372   0.00    0.0
2021/10/04 09:33:06.000   53.830369054   13.233378265    71.5989   2   7   0.9221   1.1923   1.6869   0.5363   1.0486   1.0399   0.00    0.0
2021/10/04 09:33:07.000   53.830374770   13.233391379    72.8542   2   9   0.9212   1.1651   1.9210  -0.2986   0.7619   0.5278   0.00    0.0
2021/10/04 09:33:08.000   53.830364191   13.233391929    70.5333   2   7   1.1853   1.2954   2.0173  -0.6910   0.6722   0.3747   0.00    0.0
2021/10/04 09:33:09.000   53.830358181   13.233404908    69.9955   2   8   0.9253   1.1754   2.0119  -0.2733   0.6237   0.4798   0.00    0.0
2021/10/04 09:33:10.000   53.830332498   13.233419625    69.6200   2   7   0.7088   0.9244   1.5081   0.2017   0.5330   0.4459   0.00    0.0
2021/10/04 09:33:11.000   53.830323947   13.233406376    68.8680   2   7   0.5995   0.7896   1.2502   0.2384   0.4642   0.4046   0.00    0.0
2021/10/04 09:33:12.000   53.830330926   13.233396340    62.9097   2   7   0.4846   0.6517   1.0753   0.1993   0.3786   0.3102   0.00    0.0
2021/10/04 09:33:13.000   53.830357473   13.233406879    73.4026   2   7   0.8929   1.1725   1.7987  -0.1242   0.5654   0.3441   0.00    0.0
2021/10/04 09:33:14.000   53.830355934   13.233411676    72.9420   2   7   0.7734   1.1561   1.3042   0.5920   0.3437   0.3444   0.00    0.0
2021/10/04 09:33:15.000   53.830361407   13.233415127    72.4964   2   8   0.6838   1.0209   1.1215   0.5637   0.4137   0.3637   0.00    0.0
2021/10/04 09:33:16.000   53.830359829   13.233371336    68.8262   2   8   0.7456   1.0581   1.8464  -0.3486   0.8587   0.3890   0.00    0.0
2021/10/04 09:33:17.000   53.830390360   13.233459593    80.9412   2   7   0.9163   1.2188   1.9464   0.6589   1.0240   0.9546   0.00    0.0
2021/10/04 09:33:18.000   53.830370717   13.233401937    74.6591   2   9   0.6860   0.8656   1.5528  -0.2751   0.3266   0.5281   0.00    0.0
2021/10/04 09:33:19.000   53.830365438   13.233409761    75.6408   2   9   0.6920   0.8667   1.5618  -0.2820   0.3374   0.5137   0.00    0.0
2021/10/04 09:33:20.000   53.830365569   13.233408069    74.9224   2   9   0.4916   0.6183   1.1140  -0.2034   0.2323   0.3610   0.00    0.0
2021/10/04 09:33:21.000   53.830364855   13.233404690    74.4645   2   9   0.4378   0.5107   0.9416  -0.1243   0.2266   0.3578   0.00    0.0
2021/10/04 09:33:22.000   53.830364033   13.233403933    74.2464   2   9   0.3666   0.4422   0.8085  -0.1286   0.1795   0.2861   0.00    0.0
2021/10/04 09:33:23.000   53.830363473   13.233400907    73.9263   2   9   0.3245   0.3961   0.7224  -0.1212   0.1554   0.2484   0.00    0.0
2021/10/04 09:33:24.000   53.830363778   13.233399544    73.8600   2   9   0.2948   0.3620   0.6595  -0.1136   0.1395   0.2232   0.00    0.0
2021/10/04 09:33:25.000   53.830364322   13.233399002    73.8572   2   9   0.2722   0.3355   0.6108  -0.1068   0.1279   0.2046   0.00    0.0
2021/10/04 09:33:26.000   53.830364750   13.233398467    73.8556   2   9   0.2541   0.3141   0.5716  -0.1010   0.1189   0.1900   0.00    0.0
2021/10/04 09:33:27.000   53.830365154   13.233397803    73.8319   2   9   0.2393   0.2964   0.5391  -0.0960   0.1116   0.1781   0.00    0.0
2021/10/04 09:33:28.000   53.830365487   13.233397232    73.8158   2   9   0.2267   0.2813   0.5116  -0.0916   0.1056   0.1682   0.00    0.0
2021/10/04 09:33:29.000   53.830365742   13.233396653    73.7939   2   9   0.2160   0.2684   0.4879  -0.0877   0.1004   0.1598   0.00    0.0
2021/10/04 09:33:30.000   53.830365968   13.233396205    73.7842   2   9   0.2066   0.2570   0.4672  -0.0843   0.0960   0.1525   0.00    0.0
2021/10/04 09:33:31.000   53.830366165   13.233395920    73.7826   2   9   0.1983   0.2470   0.4489  -0.0812   0.0922   0.1460   0.00    0.0
2021/10/04 09:33:32.000   53.830366322   13.233395589    73.7916   2   9   0.1909   0.2381   0.4325  -0.0785   0.0888   0.1402   0.00    0.0
2021/10/04 09:33:33.000   53.830366466   13.233395330    73.7881   2   9   0.1843   0.2301   0.4178  -0.0760   0.0857   0.1351   0.00    0.0
2021/10/04 09:33:34.000   53.830366555   13.233395050    73.7790   2   9   0.1783   0.2228   0.4045  -0.0737   0.0830   0.1304   0.00    0.0
2021/10/04 09:33:35.000   53.830366686   13.233394634    73.7649   2   9   0.1728   0.2162   0.3924  -0.0716   0.0805   0.1261   0.00    0.0
2021/10/04 09:33:36.000   53.830366755   13.233394268    73.7412   2   9   0.1677   0.2102   0.3813  -0.0697   0.0782   0.1222   0.00    0.0
2021/10/04 09:33:37.000   53.830366860   13.233393938    73.7238   2   9   0.1631   0.2046   0.3710  -0.0679   0.0762   0.1185   0.00    0.0
2021/10/04 09:33:38.000   53.830366993   13.233393668    73.6896   2   9   0.1588   0.1994   0.3615  -0.0663   0.0743   0.1151   0.00    0.0
2021/10/04 09:33:39.000   53.830367056   13.233393403    73.6413   2   9   0.1548   0.1947   0.3527  -0.0648   0.0725   0.1120   0.00    0.0
2021/10/04 09:33:40.000   53.830367107   13.233393190    73.5873   2   9   0.1510   0.1902   0.3445  -0.0633   0.0709   0.1090   0.00    0.0
2021/10/04 09:33:41.000   53.830367152   13.233392916    73.5410   2   9   0.1475   0.1860   0.3368  -0.0620   0.0693   0.1063   0.00    0.0
2021/10/04 09:33:42.000   53.830367205   13.233392742    73.5109   2   9   0.1442   0.1821   0.3296  -0.0608   0.0679   0.1036   0.00    0.0
2021/10/04 09:33:43.000   53.830367255   13.233392435    73.4819   2   9   0.1411   0.1785   0.3228  -0.0596   0.0666   0.1012   0.00    0.0
2021/10/04 09:33:44.000   53.830367296   13.233392188    73.4577   2   9   0.1382   0.1750   0.3163  -0.0584   0.0653   0.0988   0.00    0.0
2021/10/04 09:33:45.000   53.830367359   13.233391869    73.4426   2   9   0.1354   0.1717   0.3103  -0.0574   0.0641   0.0965   0.00    0.0
2021/10/04 09:33:46.000   53.830367420   13.233391577    73.4328   2   9   0.1328   0.1686   0.3045  -0.0564   0.0630   0.0944   0.00    0.0
2021/10/04 09:33:47.000   53.830367518   13.233391278    73.4254   2   9   0.1303   0.1657   0.2990  -0.0554   0.0619   0.0924   0.00    0.0
2021/10/04 09:33:48.000   53.830367573   13.233390858    73.4077   2   9   0.1279   0.1629   0.2938  -0.0545   0.0609   0.0904   0.00    0.0
2021/10/04 09:33:49.000   53.830367584   13.233390651    73.3813   2   9   0.1256   0.1603   0.2889  -0.0537   0.0600   0.0885   0.00    0.0
2021/10/04 09:33:50.000   53.830367669   13.233390445    73.3677   2   9   0.1234   0.1577   0.2841  -0.0529   0.0591   0.0867   0.00    0.0
2021/10/04 09:33:51.000   53.830367761   13.233390256    73.3654   2   9   0.1213   0.1553   0.2796  -0.0521   0.0582   0.0849   0.00    0.0
2021/10/04 09:33:52.000   53.830367862   13.233390147    73.3524   2   9   0.1193   0.1530   0.2753  -0.0514   0.0573   0.0832   0.00    0.0
2021/10/04 09:33:53.000   53.830367970   13.233390080    73.3506   2   9   0.1173   0.1508   0.2711  -0.0506   0.0566   0.0816   0.00    0.0
2021/10/04 09:33:54.000   53.830368095   13.233390022    73.3428   2   9   0.1155   0.1487   0.2671  -0.0499   0.0558   0.0800   0.00    0.0
2021/10/04 09:33:55.000   53.830368201   13.233389939    73.3465   2   9   0.1137   0.1467   0.2633  -0.0493   0.0551   0.0785   0.00    0.0
2021/10/04 09:33:56.000   53.830368256   13.233389855    73.3422   2   9   0.1119   0.1447   0.2596  -0.0487   0.0544   0.0770   0.00    0.0
2021/10/04 09:33:57.000   53.830368381   13.233389810    73.3535   2   9   0.1103   0.1428   0.2560  -0.0481   0.0537   0.0755   0.00    0.0
2021/10/04 09:33:58.000   53.830368443   13.233389713    73.3618   2   9   0.1087   0.1410   0.2526  -0.0475   0.0530   0.0741   0.00    0.0
2021/10/04 09:33:59.000   53.830368530   13.233389599    73.3697   2   9   0.1071   0.1393   0.2493  -0.0469   0.0524   0.0728   0.00    0.0
2021/10/04 09:34:00.000   53.830368635   13.233389514    73.3777   2   9   0.1056   0.1376   0.2461  -0.0464   0.0518   0.0714   0.00    0.0
2021/10/04 09:34:01.000   53.830368708   13.233389500    73.3888   2   9   0.1041   0.1360   0.2430  -0.0458   0.0512   0.0701   0.00    0.0
2021/10/04 09:34:02.000   53.830368801   13.233389471    73.3932   2   9   0.1027   0.1344   0.2400  -0.0453   0.0507   0.0688   0.00    0.0
2021/10/04 09:34:03.000   53.830368868   13.233389309    73.4003   2   9   0.1013   0.1329   0.2371  -0.0448   0.0501   0.0676   0.00    0.0
2021/10/04 09:34:04.000   53.830368933   13.233389292    73.3963   2   9   0.1000   0.1314   0.2342  -0.0444   0.0496   0.0664   0.00    0.0
2021/10/04 09:34:05.000   53.830369014   13.233389221    73.4019   2   9   0.0987   0.1300   0.2315  -0.0439   0.0491   0.0652   0.00    0.0
2021/10/04 09:34:06.000   53.830369105   13.233389140    73.4129   2   9   0.0974   0.1286   0.2288  -0.0435   0.0486   0.0640   0.00    0.0
2021/10/04 09:34:07.000   53.830369170   13.233389159    73.4101   2   9   0.0961   0.1273   0.2263  -0.0431   0.0481   0.0629   0.00    0.0
2021/10/04 09:34:08.000   53.830369251   13.233389198    73.4136   2   9   0.0950   0.1260   0.2238  -0.0426   0.0477   0.0617   0.00    0.0
2021/10/04 09:34:09.000   53.830369300   13.233389204    73.4203   2   9   0.0938   0.1247   0.2213  -0.0422   0.0472   0.0606   0.00    0.0
2021/10/04 09:34:10.000   53.830369369   13.233389172    73.4244   2   9   0.0926   0.1235   0.2189  -0.0418   0.0468   0.0596   0.00    0.0
2021/10/04 09:34:11.000   53.830369474   13.233389156    73.4329   2   9   0.0915   0.1223   0.2166  -0.0415   0.0463   0.0585   0.00    0.0
2021/10/04 09:34:12.000   53.830369536   13.233389065    73.4426   2   9   0.0904   0.1212   0.2144  -0.0411   0.0459   0.0574   0.00    0.0
2021/10/04 09:34:13.000   53.830369614   13.233389034    73.4500   2   9   0.0894   0.1200   0.2122  -0.0407   0.0455   0.0564   0.00    0.0
2021/10/04 09:34:14.000   53.830369676   13.233389001    73.4525   2   9   0.0883   0.1189   0.2100  -0.0404   0.0451   0.0554   0.00    0.0
2021/10/04 09:34:15.000   53.830369761   13.233389041    73.4622   2   9   0.0873   0.1179   0.2079  -0.0400   0.0447   0.0544   0.00    0.0
2021/10/04 09:34:16.000   53.830369804   13.233389055    73.4695   2   9   0.0863   0.1168   0.2059  -0.0397   0.0444   0.0534   0.00    0.0
2021/10/04 09:34:17.000   53.830369860   13.233389146    73.4683   2   9   0.0853   0.1158   0.2039  -0.0394   0.0440   0.0524   0.00    0.0
2021/10/04 09:34:18.000   53.830369915   13.233389159    73.4673   2   9   0.0844   0.1148   0.2023  -0.0391   0.0440   0.0513   0.00    0.0
2021/10/04 09:34:19.000   53.830369975   13.233389236    73.4648   2   9   0.0834   0.1139   0.2004  -0.0388   0.0435   0.0504   0.00    0.0
2021/10/04 09:34:20.000   53.830370025   13.233389283    73.4605   2   9   0.0825   0.1129   0.1985  -0.0385   0.0430   0.0496   0.00    0.0
2021/10/04 09:34:21.000   53.830370078   13.233389332    73.4562   2   9   0.0816   0.1120   0.1967  -0.0382   0.0427   0.0486   0.00    0.0
2021/10/04 09:34:22.000   53.830370154   13.233389342    73.4492   2   9   0.0807   0.1111   0.1948  -0.0379   0.0421   0.0478   0.00    0.0
2021/10/04 09:34:23.000   53.830370170   13.233389264    73.4341   2   9   0.0799   0.1102   0.1931  -0.0376   0.0417   0.0470   0.00    0.0
2021/10/04 09:34:24.000   53.830370204   13.233389363    73.4301   2   9   0.0790   0.1093   0.1914  -0.0373   0.0413   0.0461   0.00    0.0
2021/10/04 09:34:25.000   53.830370227   13.233389292    73.4228   2   9   0.0782   0.1085   0.1897  -0.0371   0.0409   0.0453   0.00    0.0
2021/10/04 09:34:26.000   53.830370258   13.233389341    73.4157   2   9   0.0774   0.1077   0.1881  -0.0368   0.0406   0.0444   0.00    0.0
2021/10/04 09:34:27.000   53.830370287   13.233389277    73.4093   2   9   0.0766   0.1069   0.1865  -0.0365   0.0402   0.0436   0.00    0.0
2021/10/04 09:34:28.000   53.830370290   13.233389264    73.4058   2   9   0.0758   0.1061   0.1849  -0.0363   0.0399   0.0428   0.00    0.0
2021/10/04 09:34:29.000   53.830370317   13.233389167    73.3918   2   9   0.0751   0.1053   0.1834  -0.0361   0.0396   0.0420   0.00    0.0
2021/10/04 09:34:30.000   53.830370468   13.233389258    73.3826   2   9   0.0743   0.1046   0.1819  -0.0359   0.0393   0.0411   0.00    0.0
2021/10/04 09:34:31.000   53.830370512   13.233389299    73.3953   2   9   0.0736   0.1039   0.1806  -0.0358   0.0394   0.0401   0.00    0.0
2021/10/04 09:34:32.000   53.830370424   13.233389250    73.3821   2   9   0.0729   0.1032   0.1792  -0.0355   0.0391   0.0393   0.00    0.0
2021/10/04 09:34:33.000   53.830370334   13.233389392    73.3816   2   9   0.0722   0.1025   0.1777  -0.0353   0.0388   0.0385   0.00    0.0
2021/10/04 09:34:34.000   53.830370308   13.233389153    73.3703   2   8   0.0715   0.1019   0.1766  -0.0353   0.0390   0.0374   0.00    0.0
2021/10/04 09:34:35.000   53.830370195   13.233389218    73.3762   2   8   0.0709   0.1013   0.1754  -0.0352   0.0392   0.0363   0.00    0.0
2021/10/04 09:34:36.000   53.830370295   13.233389274    73.3677   2   9   0.0702   0.1007   0.1742  -0.0351   0.0392   0.0354   0.00    0.0
2021/10/04 09:34:37.000   53.830370178   13.233389150    73.3486   2   9   0.0696   0.1000   0.1730  -0.0349   0.0391   0.0345   0.00    0.0
2021/10/04 09:34:38.000   53.830370102   13.233389147    73.3330   2   9   0.0689   0.0994   0.1718  -0.0348   0.0390   0.0336   0.00    0.0
2021/10/04 09:34:39.000   53.830370040   13.233389123    73.3284   2   9   0.0683   0.0988   0.1706  -0.0347   0.0390   0.0326   0.00    0.0
2021/10/04 09:34:40.000   53.830370015   13.233389086    73.3244   2   9   0.0677   0.0982   0.1694  -0.0345   0.0387   0.0318   0.00    0.0
2021/10/04 09:34:41.000   53.830369910   13.233388990    73.3068   2   9   0.0671   0.0976   0.1682  -0.0343   0.0386   0.0310   0.00    0.0
2021/10/04 09:34:42.000   53.830369856   13.233388975    73.2846   2   9   0.0665   0.0970   0.1671  -0.0342   0.0385   0.0301   0.00    0.0
2021/10/04 09:34:43.000   53.830369836   13.233388881    73.2721   2   9   0.0659   0.0965   0.1660  -0.0341   0.0384   0.0292   0.00    0.0
2021/10/04 09:34:44.000   53.830369819   13.233388846    73.2609   2   9   0.0653   0.0959   0.1649  -0.0339   0.0384   0.0283   0.00    0.0
2021/10/04 09:34:45.000   53.830369770   13.233388870    73.2425   2   9   0.0647   0.0954   0.1638  -0.0338   0.0383   0.0274   0.00    0.0
2021/10/04 09:34:46.000   53.830369720   13.233388689    73.2270   2   9   0.0642   0.0949   0.1627  -0.0337   0.0382   0.0265   0.00    0.0
2021/10/04 09:34:47.000   53.830369692   13.233388749    73.2136   2   9   0.0636   0.0943   0.1617  -0.0336   0.0381   0.0256   0.00    0.0
2021/10/04 09:34:48.000   53.830369641   13.233388575    73.1977   2   9   0.0631   0.0938   0.1606  -0.0335   0.0380   0.0246   0.00    0.0
2021/10/04 09:34:49.000   53.830369623   13.233388593    73.1809   2   9   0.0625   0.0933   0.1596  -0.0333   0.0379   0.0237   0.00    0.0
2021/10/04 09:34:50.000   53.830369583   13.233388601    73.1660   2   9   0.0620   0.0928   0.1586  -0.0332   0.0378   0.0228   0.00    0.0
2021/10/04 09:34:51.000   53.830369555   13.233388570    73.1630   2   9   0.0615   0.0923   0.1576  -0.0331   0.0378   0.0219   0.00    0.0
2021/10/04 09:34:52.000   53.830369500   13.233388482    73.1450   2   9   0.0610   0.0918   0.1566  -0.0330   0.0377   0.0209   0.00    0.0
2021/10/04 09:34:53.000   53.830369420   13.233388471    73.1310   2   9   0.0605   0.0914   0.1557  -0.0328   0.0376   0.0199   0.00    0.0
2021/10/04 09:34:54.000   53.830367740   13.233393315    73.7732   2   9   0.0600   0.0909   0.1547  -0.0327   0.0375   0.0190   0.00    0.0
2021/10/04 09:34:55.000   53.830422155   13.233186683    51.8406   2   7   0.0773   0.1392   0.2294  -0.0764   0.1375  -0.0861   0.00    0.0
2021/10/04 09:34:56.000   53.830373613   13.233316748    70.2864   2   7   0.9244   1.5629   1.9603  -0.8135   0.5415   0.6501   0.00    0.0
2021/10/04 09:34:57.000   53.830375520   13.233267722    66.7679   2   6   1.0990   1.6380   2.3734  -0.9399   0.6859   0.8631   0.00    0.0
2021/10/04 09:34:58.000   53.830384069   13.233307068    71.2890   2   6   1.2783   1.8631   2.4998  -1.2093   1.0791   0.4840   0.00    0.0
2021/10/04 09:34:59.000   53.830353076   13.233419545    71.7903   2   9   0.6930   0.8662   1.5728  -0.2758   0.3521   0.5241   0.00    0.0
2021/10/04 09:35:00.000   53.830354333   13.233466909    72.0080   2   8   0.7076   0.9017   1.6422  -0.3347   0.4891   0.4567   0.00    0.0
2021/10/04 09:35:01.000   53.830337434   13.233473166    73.4431   2   9   0.6930   0.8662   1.5731  -0.2757   0.3524   0.5243   0.00    0.0
2021/10/04 09:35:02.000   53.830320986   13.233491866    72.0137   2   9   0.4960   0.6164   1.1210  -0.1991   0.2388   0.3747   0.00    0.0
2021/10/04 09:35:03.000   53.830316132   13.233502909    72.8474   2   9   0.4072   0.5041   0.9174  -0.1645   0.1931   0.3082   0.00    0.0
2021/10/04 09:35:04.000   53.830311863   13.233504271    73.0298   2   8   0.3550   0.4382   0.8052  -0.1434   0.1665   0.2612   0.00    0.0
2021/10/04 09:35:05.000   53.830312633   13.233501946    73.6241   2   9   0.3178   0.3928   0.7205  -0.1283   0.1462   0.2353   0.00    0.0
2021/10/04 09:35:06.000   53.830315878   13.233502813    73.8623   2   9   0.2917   0.3585   0.6617  -0.1172   0.1342   0.2131   0.00    0.0
2021/10/04 09:35:07.000   53.830316494   13.233504607    74.0176   2   9   0.2714   0.3319   0.6149  -0.1086   0.1250   0.1957   0.00    0.0
2021/10/04 09:35:08.000   53.830311874   13.233507537    74.0669   2   9   0.2532   0.3106   0.5740  -0.1018   0.1170   0.1834   0.00    0.0
2021/10/04 09:35:09.000   53.830305930   13.233520378    74.0653   2   9   0.2397   0.2928   0.5412  -0.0955   0.1107   0.1750   0.00    0.0
2021/10/04 09:35:10.000   53.830299203   13.233537838    74.0828   2   9   0.2266   0.2781   0.5127  -0.0909   0.1049   0.1655   0.00    0.0
2021/10/04 09:35:11.000   53.830293466   13.233556249    74.0925   2   9   0.2162   0.2663   0.4908  -0.0885   0.1052   0.1560   0.00    0.0
2021/10/04 09:35:12.000   53.830287444   13.233575579    74.0763   2   9   0.2072   0.2559   0.4719  -0.0859   0.1045   0.1479   0.00    0.0
2021/10/04 09:35:13.000   53.830282054   13.233595841    74.0830   2   9   0.1989   0.2459   0.4533  -0.0823   0.0997   0.1425   0.00    0.0
2021/10/04 09:35:14.000   53.830276327   13.233614382    74.0610   2   9   0.1919   0.2376   0.4385  -0.0803   0.0990   0.1362   0.00    0.0
2021/10/04 09:35:15.000   53.830269074   13.233632499    74.0789   2   9   0.1855   0.2302   0.4250  -0.0784   0.0981   0.1306   0.00    0.0
2021/10/04 09:35:16.000   53.830262408   13.233651540    74.0876   2   9   0.1798   0.2234   0.4127  -0.0766   0.0971   0.1256   0.00    0.0
2021/10/04 09:35:17.000   53.830255768   13.233670977    74.2425   2   9   0.1743   0.2167   0.4001  -0.0741   0.0934   0.1222   0.00    0.0
2021/10/04 09:35:18.000   53.830248928   13.233689880    74.2945   2   9   0.1693   0.2105   0.3886  -0.0718   0.0901   0.1191   0.00    0.0
2021/10/04 09:35:19.000   53.830242685   13.233708924    74.2508   2   9   0.1649   0.2053   0.3791  -0.0704   0.0894   0.1151   0.00    0.0
2021/10/04 09:35:20.000   53.830238364   13.233726568    74.9872   2   9   0.1606   0.2000   0.3693  -0.0684   0.0865   0.1125   0.00    0.0
2021/10/04 09:35:21.000   53.830230472   13.233747522    74.3726   2   9   0.1566   0.1955   0.3611  -0.0670   0.0860   0.1089   0.00    0.0
2021/10/04 09:35:22.000   53.830224018   13.233767194    74.2922   2   9   0.1528   0.1909   0.3524  -0.0651   0.0837   0.1063   0.00    0.0
2021/10/04 09:35:23.000   53.830217266   13.233787933    74.3003   2   9   0.1493   0.1870   0.3452  -0.0639   0.0832   0.1031   0.00    0.0
2021/10/04 09:35:24.000   53.830209834   13.233807223    74.2538   2   9   0.1461   0.1830   0.3377  -0.0624   0.0811   0.1011   0.00    0.0
2021/10/04 09:35:25.000   53.830202717   13.233826169    74.2325   2   9   0.1430   0.1792   0.3306  -0.0610   0.0790   0.0991   0.00    0.0
2021/10/04 09:35:26.000   53.830195877   13.233844834    74.2161   2   9   0.1402   0.1760   0.3246  -0.0602   0.0784   0.0966   0.00    0.0
2021/10/04 09:35:27.000   53.830189409   13.233864913    74.1841   2   9   0.1375   0.1727   0.3183  -0.0590   0.0766   0.0948   0.00    0.0
2021/10/04 09:35:28.000   53.830182594   13.233884675    74.1616   2   9   0.1349   0.1695   0.3124  -0.0578   0.0749   0.0931   0.00    0.0
2021/10/04 09:35:29.000   53.830176833   13.233901491    74.1845   2   9   0.1324   0.1665   0.3067  -0.0567   0.0732   0.0915   0.00    0.0
2021/10/04 09:35:30.000   53.830171679   13.233916247    74.1566   2   9   0.1300   0.1639   0.3013  -0.0559   0.0719   0.0899   0.00    0.0
2021/10/04 09:35:31.000   53.830165972   13.233933918    74.1601   2   9   0.1278   0.1612   0.2963  -0.0549   0.0705   0.0887   0.00    0.0
2021/10/04 09:35:32.000   53.830158369   13.233954086    74.2035   2   9   0.1258   0.1586   0.2915  -0.0540   0.0691   0.0875   0.00    0.0
2021/10/04 09:35:33.000   53.830151968   13.233973832    74.1892   2   9   0.1238   0.1562   0.2869  -0.0531   0.0679   0.0864   0.00    0.0
2021/10/04 09:35:34.000   53.830145018   13.233992696    74.1113   2   9   0.1220   0.1538   0.2824  -0.0524   0.0665   0.0852   0.00    0.0
2021/10/04 09:35:35.000   53.830138218   13.234011809    74.1090   2   9   0.1202   0.1516   0.2783  -0.0515   0.0656   0.0841   0.00    0.0
2021/10/04 09:35:36.000   53.830131538   13.234030866    74.0386   2   9   0.1185   0.1494   0.2742  -0.0508   0.0642   0.0830   0.00    0.0
2021/10/04 09:35:37.000   53.830124630   13.234049217    74.0721   2   9   0.1169   0.1473   0.2704  -0.0501   0.0631   0.0819   0.00    0.0
2021/10/04 09:35:38.000   53.830117331   13.234069662    74.0366   2   9   0.1153   0.1453   0.2667  -0.0494   0.0621   0.0809   0.00    0.0
2021/10/04 09:35:39.000   53.830110877   13.234089877    74.0149   2   9   0.1138   0.1434   0.2632  -0.0487   0.0611   0.0799   0.00    0.0
2021/10/04 09:35:40.000   53.830103391   13.234109729    73.9953   2   9   0.1124   0.1415   0.2598  -0.0481   0.0602   0.0790   0.00    0.0
2021/10/04 09:35:41.000   53.830095965   13.234128575    73.9845   2   9   0.1110   0.1398   0.2565  -0.0474   0.0594   0.0781   0.00    0.0
2021/10/04 09:35:42.000   53.830089785   13.234147968    73.9987   2   9   0.1096   0.1381   0.2533  -0.0468   0.0585   0.0772   0.00    0.0
2021/10/04 09:35:43.000   53.830083045   13.234167433    74.0163   2   9   0.1083   0.1365   0.2503  -0.0462   0.0579   0.0763   0.00    0.0
2021/10/04 09:35:44.000   53.830076169   13.234186169    74.0262   2   9   0.1071   0.1349   0.2473  -0.0456   0.0571   0.0754   0.00    0.0
2021/10/04 09:35:45.000   53.830069562   13.234205941    74.0142   2   9   0.1059   0.1334   0.2445  -0.0451   0.0564   0.0746   0.00    0.0
2021/10/04 09:35:46.000   53.830062651   13.234225890    74.0155   2   9   0.1047   0.1319   0.2417  -0.0445   0.0558   0.0738   0.00    0.0
2021/10/04 09:35:47.000   53.830056026   13.234246105    74.0138   2   9   0.1035   0.1305   0.2390  -0.0440   0.0551   0.0730   0.00    0.0
2021/10/04 09:35:48.000   53.830049218   13.234265730    73.9607   2   9   0.1024   0.1291   0.2363  -0.0435   0.0544   0.0722   0.00    0.0
2021/10/04 09:35:49.000   53.830042339   13.234285347    73.9772   2   9   0.1013   0.1277   0.2338  -0.0430   0.0537   0.0715   0.00    0.0
2021/10/04 09:35:50.000   53.830035190   13.234304690    73.9665   2   9   0.1002   0.1264   0.2313  -0.0425   0.0531   0.0708   0.00    0.0
2021/10/04 09:35:51.000   53.830028110   13.234323740    73.9703   2   9   0.0992   0.1252   0.2289  -0.0420   0.0525   0.0700   0.00    0.0
2021/10/04 09:35:52.000   53.830021253   13.234343106    73.9645   2   9   0.0982   0.1240   0.2267  -0.0417   0.0523   0.0691   0.00    0.0
2021/10/04 09:35:53.000   53.830014580   13.234362679    73.9481   2   9   0.0972   0.1228   0.2245  -0.0412   0.0517   0.0684   0.00    0.0
2021/10/04 09:35:54.000   53.830007665   13.234381538    73.9044   2   9   0.0963   0.1216   0.2223  -0.0408   0.0512   0.0677   0.00    0.0
2021/10/04 09:35:55.000   53.830000743   13.234400374    73.9030   2   9   0.0953   0.1205   0.2201  -0.0404   0.0507   0.0670   0.00    0.0
2021/10/04 09:35:56.000   53.829994346   13.234416990    73.8759   2   9   0.0944   0.1194   0.2179  -0.0400   0.0501   0.0663   0.00    0.0
2021/10/04 09:35:57.000   53.829990304   13.234427636    73.8986   2   9   0.0935   0.1184   0.2163  -0.0397   0.0502   0.0653   0.00    0.0
2021/10/04 09:35:58.000   53.829988537   13.234430363    73.8400   2   9   0.0927   0.1174   0.2147  -0.0395   0.0503   0.0644   0.00    0.0
2021/10/04 09:35:59.000   53.829989010   13.234429439    73.7724   2   9   0.0919   0.1169   0.2127  -0.0396   0.0500   0.0637   0.00    0.0
2021/10/04 09:36:00.000   53.829988332   13.234429384    73.7464   2   9   0.0910   0.1157   0.2109  -0.0388   0.0499   0.0630   0.00    0.0
2021/10/04 09:36:01.000   53.829988359   13.234429807    73.7490   2   9   0.0904   0.1150   0.2092  -0.0390   0.0498   0.0624   0.00    0.0
2021/10/04 09:36:02.000   53.829989963   13.234431741    73.8101   2   9   0.0895   0.1139   0.2075  -0.0383   0.0495   0.0618   0.00    0.0
2021/10/04 09:36:03.000   53.829990511   13.234432146    73.9115   2   9   0.0889   0.1132   0.2058  -0.0383   0.0492   0.0612   0.00    0.0
2021/10/04 09:36:04.000   53.829988111   13.234436160    73.9090   2   9   0.0881   0.1122   0.2041  -0.0377   0.0491   0.0607   0.00    0.0
2021/10/04 09:36:05.000   53.829985240   13.234450265    73.9360   2   9   0.1470   0.5496   0.3320  -0.2549   0.3795  -0.1656   0.00    0.0
2021/10/04 09:36:06.000   53.829984247   13.234456255    73.7413   2   9   0.1214   0.3978   0.2722  -0.1839   0.2695  -0.1097   0.00    0.0
2021/10/04 09:36:07.000   53.829982250   13.234460574    73.5823   2   9   0.1108   0.3296   0.2475  -0.1517   0.2189  -0.0819   0.00    0.0
2021/10/04 09:36:08.000   53.829980987   13.234460274    73.0631   2   9   0.1070   0.2989   0.2438  -0.1387   0.2025  -0.0747   0.00    0.0
2021/10/04 09:36:09.000   53.829980744   13.234458157    72.7487   2   8   0.1067   0.2841   0.2503  -0.1335   0.1991  -0.0782   0.00    0.0
2021/10/04 09:36:10.000   53.829981265   13.234455134    72.6169   2   9   0.1070   0.2691   0.2446  -0.1243   0.1868  -0.0742   0.00    0.0
2021/10/04 09:36:11.000   53.829994927   13.234432542    68.1635   2   8   0.7475   1.0544   1.9625   0.2897   0.5842  -0.3403   0.00    0.0
2021/10/04 09:36:12.000   53.829999641   13.234449745    70.3335   2   7   0.6199   1.2515   1.9380   0.6161   1.2817   0.7239   0.00    0.0
2021/10/04 09:36:13.000   53.829991967   13.234447393    70.5522   2   7   0.5227   1.2083   1.8679   0.5662   1.3236   0.6884   0.00    0.0
2021/10/04 09:36:14.000   53.829982744   13.234463481    73.5252   2   7   0.6012   0.6790   1.3196  -0.2645   0.6966  -0.5217   0.00    0.0
2021/10/04 09:36:15.000   53.829986976   13.234441198    70.4848   2   9   0.5614   0.5881   1.1374  -0.2754   0.5987  -0.4862   0.00    0.0
2021/10/04 09:36:16.000   53.829988522   13.234443235    70.9962   2   9   0.4273   0.4956   0.9116  -0.1310   0.4504  -0.2494   0.00    0.0
2021/10/04 09:36:17.000   53.829992504   13.234452402    71.1459   2   8   0.3657   0.4427   0.8049  -0.0436   0.3772  -0.1329   0.00    0.0
2021/10/04 09:36:18.000   53.829990864   13.234448548    71.1650   2   8   0.3280   0.4055   0.7322   0.0578   0.3309   0.0209   0.00    0.0
2021/10/04 09:36:19.000   53.829985278   13.234434054    70.1556   2   8   0.3007   0.3770   0.6784   0.0743   0.2981   0.0948   0.00    0.0
2021/10/04 09:36:20.000   53.829988549   13.234438838    70.4324   2   8   0.2802   0.3548   0.6332   0.0775   0.2731   0.1135   0.00    0.0
2021/10/04 09:36:21.000   53.829987299   13.234443806    73.5344   2   9   0.6969   0.8971   1.6523  -0.2412   0.1487   0.5030   0.00    0.0
2021/10/04 09:36:22.000   53.829990118   13.234456195    73.7155   2   9   0.4941   0.6255   1.1502  -0.1842   0.1974   0.3650   0.00    0.0
2021/10/04 09:36:23.000   53.829990183   13.234468084    75.4512   2   9   0.5120   0.7538   1.4767   0.3530   0.5869   0.2689   0.00    0.0
2021/10/04 09:36:24.000   53.829989815   13.234464884    74.8562   2   9   0.4023   0.5577   1.0783   0.1956   0.3828   0.2506   0.00    0.0
2021/10/04 09:36:25.000   53.829990071   13.234467203    74.8592   2   9   0.3464   0.4662   0.8923   0.1233   0.2946   0.2307   0.00    0.0
2021/10/04 09:36:26.000   53.829989395   13.234464489    74.3999   2   9   0.3105   0.4113   0.7830   0.0794   0.2444   0.2118   0.00    0.0
2021/10/04 09:36:27.000   53.829988518   13.234461836    74.0709   2   9   0.2842   0.3726   0.7063   0.0455   0.2113   0.1970   0.00    0.0
2021/10/04 09:36:28.000   53.829988009   13.234460419    73.8742   2   9   0.2638   0.3434   0.6486  -0.0132   0.1877   0.1850   0.00    0.0
2021/10/04 09:36:29.000   53.829987587   13.234459050    73.7197   2   9   0.2473   0.3202   0.6032  -0.0378   0.1699   0.1749   0.00    0.0
2021/10/04 09:36:30.000   53.829987326   13.234458091    73.5900   2   9   0.2336   0.3012   0.5662  -0.0464   0.1559   0.1662   0.00    0.0
2021/10/04 09:36:31.000   53.829987149   13.234457353    73.4752   2   9   0.2219   0.2852   0.5352  -0.0508   0.1447   0.1587   0.00    0.0
2021/10/04 09:36:32.000   53.829987052   13.234456816    73.4064   2   9   0.2118   0.2716   0.5088  -0.0531   0.1354   0.1521   0.00    0.0
2021/10/04 09:36:33.000   53.829986838   13.234456199    73.3483   2   9   0.2030   0.2598   0.4860  -0.0544   0.1275   0.1462   0.00    0.0
2021/10/04 09:36:34.000   53.829986575   13.234455689    73.2981   2   9   0.1952   0.2494   0.4660  -0.0549   0.1209   0.1409   0.00    0.0
2021/10/04 09:36:35.000   53.829986362   13.234455286    73.2912   2   9   0.1881   0.2402   0.4482  -0.0551   0.1150   0.1361   0.00    0.0
2021/10/04 09:36:36.000   53.829986160   13.234455006    73.2667   2   9   0.1818   0.2319   0.4323  -0.0549   0.1100   0.1317   0.00    0.0
2021/10/04 09:36:37.000   53.829985984   13.234454807    73.2530   2   9   0.1761   0.2245   0.4180  -0.0546   0.1055   0.1276   0.00    0.0
2021/10/04 09:36:38.000   53.829985875   13.234454562    73.2350   2   9   0.1708   0.2177   0.4050  -0.0542   0.1014   0.1239   0.00    0.0
2021/10/04 09:36:39.000   53.829985749   13.234454356    73.2227   2   9   0.1660   0.2115   0.3931  -0.0537   0.0978   0.1204   0.00    0.0
2021/10/04 09:36:40.000   53.829985592   13.234454264    73.1925   2   9   0.1615   0.2058   0.3821  -0.0532   0.0946   0.1171   0.00    0.0
2021/10/04 09:36:41.000   53.829985477   13.234454315    73.1706   2   9   0.1574   0.2005   0.3720  -0.0526   0.0916   0.1141   0.00    0.0
2021/10/04 09:36:42.000   53.829985340   13.234454504    73.1667   2   9   0.1535   0.1956   0.3627  -0.0520   0.0889   0.1112   0.00    0.0
2021/10/04 09:36:43.000   53.829985275   13.234454518    73.1451   2   9   0.1499   0.1911   0.3540  -0.0514   0.0864   0.1085   0.00    0.0
2021/10/04 09:36:44.000   53.829985190   13.234454573    73.1627   2   9   0.1465   0.1868   0.3458  -0.0508   0.0841   0.1060   0.00    0.0
2021/10/04 09:36:45.000   53.829985070   13.234454838    73.1488   2   9   0.1433   0.1829   0.3382  -0.0502   0.0819   0.1036   0.00    0.0
2021/10/04 09:36:46.000   53.829984986   13.234454713    73.1389   2   9   0.1403   0.1791   0.3310  -0.0496   0.0799   0.1012   0.00    0.0
2021/10/04 09:36:47.000   53.829984980   13.234454912    73.1483   2   9   0.1374   0.1756   0.3243  -0.0490   0.0781   0.0990   0.00    0.0
2021/10/04 09:36:48.000   53.829984998   13.234454985    73.1574   2   9   0.1347   0.1723   0.3179  -0.0485   0.0764   0.0969   0.00    0.0
2021/10/04 09:36:49.000   53.829985032   13.234455152    73.1640   2   9   0.1321   0.1692   0.3119  -0.0479   0.0747   0.0949   0.00    0.0
2021/10/04 09:36:50.000   53.829985007   13.234455313    73.1729   2   9   0.1297   0.1662   0.3061  -0.0474   0.0732   0.0930   0.00    0.0
2021/10/04 09:36:51.000   53.829985019   13.234455399    73.1822   2   9   0.1273   0.1634   0.3007  -0.0469   0.0717   0.0911   0.00    0.0
2021/10/04 09:36:52.000   53.829985007   13.234455504    73.1851   2   9   0.1251   0.1607   0.2955  -0.0464   0.0704   0.0893   0.00    0.0
2021/10/04 09:36:53.000   53.829984971   13.234455606    73.1793   2   9   0.1230   0.1581   0.2906  -0.0459   0.0691   0.0876   0.00    0.0
2021/10/04 09:36:54.000   53.829984934   13.234455666    73.1759   2   9   0.1209   0.1557   0.2858  -0.0454   0.0679   0.0859   0.00    0.0
2021/10/04 09:36:55.000   53.829984874   13.234455673    73.1728   2   9   0.1189   0.1534   0.2813  -0.0449   0.0667   0.0842   0.00    0.0
2021/10/04 09:36:56.000   53.829984800   13.234455613    73.1713   2   9   0.1170   0.1511   0.2770  -0.0445   0.0656   0.0827   0.00    0.0
2021/10/04 09:36:57.000   53.829984763   13.234455591    73.1845   2   9   0.1152   0.1490   0.2728  -0.0440   0.0645   0.0811   0.00    0.0
2021/10/04 09:36:58.000   53.829984708   13.234455612    73.1943   2   9   0.1134   0.1470   0.2688  -0.0436   0.0635   0.0796   0.00    0.0
2021/10/04 09:36:59.000   53.829984666   13.234455642    73.2016   2   9   0.1117   0.1450   0.2650  -0.0432   0.0626   0.0782   0.00    0.0
2021/10/04 09:37:00.000   53.829984643   13.234455696    73.2143   2   9   0.1101   0.1431   0.2613  -0.0428   0.0616   0.0768   0.00    0.0
2021/10/04 09:37:01.000   53.829984602   13.234455729    73.2271   2   9   0.1085   0.1413   0.2577  -0.0424   0.0608   0.0754   0.00    0.0
2021/10/04 09:37:02.000   53.829984591   13.234455850    73.2403   2   9   0.1070   0.1395   0.2542  -0.0420   0.0599   0.0740   0.00    0.0
2021/10/04 09:37:03.000   53.829984605   13.234455880    73.2510   2   9   0.1055   0.1378   0.2509  -0.0417   0.0591   0.0727   0.00    0.0
2021/10/04 09:37:04.000   53.829984646   13.234455999    73.2760   2   9   0.1040   0.1362   0.2477  -0.0413   0.0583   0.0714   0.00    0.0
2021/10/04 09:37:05.000   53.829984677   13.234455974    73.2840   2   9   0.1026   0.1346   0.2446  -0.0409   0.0575   0.0702   0.00    0.0
2021/10/04 09:37:06.000   53.829984690   13.234455993    73.2926   2   9   0.1013   0.1331   0.2415  -0.0406   0.0568   0.0690   0.00    0.0
2021/10/04 09:37:07.000   53.829984712   13.234456016    73.3018   2   9   0.0999   0.1316   0.2386  -0.0403   0.0561   0.0678   0.00    0.0
2021/10/04 09:37:08.000   53.829984710   13.234455997    73.3078   2   9   0.0986   0.1302   0.2358  -0.0400   0.0554   0.0666   0.00    0.0
2021/10/04 09:37:09.000   53.829984721   13.234456024    73.3163   2   9   0.0974   0.1288   0.2330  -0.0396   0.0548   0.0654   0.00    0.0
2021/10/04 09:37:10.000   53.829984704   13.234455989    73.3161   2   9   0.0961   0.1274   0.2303  -0.0393   0.0541   0.0643   0.00    0.0
2021/10/04 09:37:11.000   53.829984723   13.234456065    73.3241   2   9   0.0950   0.1261   0.2281  -0.0390   0.0538   0.0630   0.00    0.0
2021/10/04 09:37:12.000   53.829984381   13.234455385    73.2803   2   9   0.0939   0.1250   0.2264  -0.0390   0.0541   0.0615   0.00    0.0
2021/10/04 09:37:13.000   53.829984262   13.234455519    73.2624   2   9   0.0927   0.1237   0.2238  -0.0386   0.0534   0.0607   0.00    0.0
2021/10/04 09:37:14.000   53.829983906   13.234455189    73.1898   2   9   0.0917   0.1227   0.2220  -0.0385   0.0534   0.0593   0.00    0.0
2021/10/04 09:37:15.000   53.829983738   13.234455671    73.1217   2   8   0.0908   0.1220   0.2224  -0.0380   0.0523   0.0568   0.00    0.0
2021/10/04 09:37:16.000   53.829983682   13.234455425    73.0954   2   8   0.0913   0.1213   0.2218  -0.0351   0.0540   0.0591   0.00    0.0
2021/10/04 09:37:17.000   53.829980606   13.234454276    73.2713   2   7   0.6959   0.1980   0.3337   0.3275  -0.1895  -0.4078   0.00    0.0
2021/10/04 09:37:18.000   53.829987561   13.234470773    71.0317   2   6   0.6297   0.8288   2.0614   0.5460  -0.3065  -0.7460   0.00    0.0
2021/10/04 09:37:19.000   53.829983655   13.234460607    70.7389   2   6   0.7102   1.0105   2.0572   0.7157   0.1769  -0.7202   0.00    0.0
2021/10/04 09:37:20.000   53.829986056   13.234470512    71.0185   2   6   0.5209   0.7360   1.5091   0.4872  -0.1530  -0.4996   0.00    0.0
2021/10/04 09:37:21.000   53.829983273   13.234465572    72.0555   2   8   0.5418   0.8628   1.2017   0.5895   0.5326   0.2238   0.00    0.0
2021/10/04 09:37:22.000   53.829987702   13.234479997    73.4071   2   8   0.5092   0.8213   1.0077   0.5636   0.4993   0.2898   0.00    0.0
2021/10/04 09:37:23.000   53.829983824   13.234467750    74.5961   2   8   0.4320   0.6787   0.8563   0.4540   0.3895   0.2333   0.00    0.0
2021/10/04 09:37:24.000   53.829986638   13.234465465    75.3707   2   8   0.3299   0.4999   0.7561   0.2966   0.3093   0.1984   0.00    0.0
2021/10/04 09:37:25.000   53.829988065   13.234445352    75.3704   2   8   0.3513   0.4214   1.2651   0.2407   0.1782  -0.4292   0.00    0.0
2021/10/04 09:37:26.000   53.829987648   13.234442405    75.5208   2   8   0.2873   0.3720   0.9539   0.1842   0.2224  -0.2436   0.00    0.0
2021/10/04 09:37:27.000   53.829986954   13.234444049    75.3216   2   7   0.2581   0.3386   0.8210   0.1513   0.2125  -0.1640   0.00    0.0
2021/10/04 09:37:28.000   53.829987948   13.234445273    74.9236   2   8   0.2377   0.3139   0.7281   0.1283   0.1981  -0.0987   0.00    0.0
2021/10/04 09:37:29.000   53.829989432   13.234444793    74.4886   2   8   0.2226   0.2943   0.6622   0.1108   0.1841  -0.0264   0.00    0.0
